[
  {
    "title": "台灣官方網站資源：從25個網站到數位政府強國的30年奇蹟",
    "lat": 25.033,
    "lng": 121.565,
    "category": "about",
    "region": "north",
    "link": "/about/%E5%8F%B0%E7%81%A3%E5%AE%98%E6%96%B9%E7%B6%B2%E7%AB%99%E8%B3%87%E6%BA%90%E9%87%8D%E5%AF%AB",
    "lang": "zh-TW",
    "desc": "1996年，台灣為了參加網際網路世界博覽會，25個政府機關建置了第一批官方網站。30年後的今天，這座島嶼成為全球數位政府的典範——從網路報稅到單一入口網站，從開放資料到AI語料庫，探索台灣如何用官方網站寫下數位轉型的傳奇。",
    "city": "台北"
  },
  {
    "title": "台灣傳統藝術",
    "lat": 22.996,
    "lng": 120.161,
    "category": "art",
    "region": "south",
    "link": "/art/%E5%8F%B0%E7%81%A3%E5%82%B3%E7%B5%B1%E8%97%9D%E8%A1%93",
    "lang": "zh-TW",
    "desc": "21世紀最大的文化產業奇蹟：年產值千億的霹靂布袋戲帝國，如何從鄉間謝神小戲變成征服全球的文化軟實力？",
    "city": "台南"
  },
  {
    "title": "台灣原住民當代藝術",
    "lat": 25.040861,
    "lng": 121.566037,
    "category": "art",
    "region": "north",
    "link": "/art/%E5%8F%B0%E7%81%A3%E5%8E%9F%E4%BD%8F%E6%B0%91%E7%95%B6%E4%BB%A3%E8%97%9D%E8%A1%93",
    "lang": "zh-TW",
    "desc": "從傳統工藝到當代創作，探索台灣原住民藝術家如何在全球藝術舞台上發聲，重新定義原住民身份與當代藝術的對話",
    "city": "台北"
  },
  {
    "title": "台灣建築",
    "lat": 25.029626,
    "lng": 121.558132,
    "category": "art",
    "region": "north",
    "link": "/art/%E5%8F%B0%E7%81%A3%E5%BB%BA%E7%AF%89",
    "lang": "zh-TW",
    "desc": "從石板屋到摩天樓：一座島嶼的建築時光之旅",
    "city": "台北"
  },
  {
    "title": "台灣新媒體藝術",
    "lat": 25.038426,
    "lng": 121.56152,
    "category": "art",
    "region": "north",
    "link": "/art/%E5%8F%B0%E7%81%A3%E6%96%B0%E5%AA%92%E9%AB%94%E8%97%9D%E8%A1%93",
    "lang": "zh-TW",
    "desc": "從1980年代錄像先驅到威尼斯VR大獎，16位關鍵藝術家與40年數位藝術革命的完整脈絡。台灣如何用程式碼寫詩，在國際藝術版圖刻下自己的名字。",
    "city": "台北"
  },
  {
    "title": "台灣水彩畫的百年流變",
    "lat": 24.804,
    "lng": 120.969,
    "category": "art",
    "region": "north",
    "link": "/art/%E5%8F%B0%E7%81%A3%E6%B0%B4%E5%BD%A9%E7%95%AB%E7%9A%84%E7%99%BE%E5%B9%B4%E6%B5%81%E8%AE%8A",
    "lang": "zh-TW",
    "desc": "從日治時期石川欽一郎的啟蒙，到當代簡忠威揚名國際，台灣水彩畫走過百年歷程，成為亞洲最活躍的水彩創作重鎮。",
    "city": "新竹"
  },
  {
    "title": "台灣現代詩",
    "lat": 24.081,
    "lng": 120.539,
    "category": "art",
    "region": "central",
    "link": "/art/%E5%8F%B0%E7%81%A3%E7%8F%BE%E4%BB%A3%E8%A9%A9",
    "lang": "zh-TW",
    "desc": "從三個書房走出的現代主義實驗，如何意外催生最鄉土的詩歌革命",
    "city": "彰化"
  },
  {
    "title": "台灣當代雕塑發展",
    "lat": 25.027402,
    "lng": 121.558606,
    "category": "art",
    "region": "north",
    "link": "/art/%E5%8F%B0%E7%81%A3%E7%95%B6%E4%BB%A3%E9%9B%95%E5%A1%91%E7%99%BC%E5%B1%95",
    "lang": "zh-TW",
    "desc": "從楊英風、朱銘到新世代，探索台灣雕塑藝術的演變軌跡與創作精神",
    "city": "台北"
  },
  {
    "title": "台灣策展人與藝術文化建構",
    "lat": 25.037795,
    "lng": 121.569449,
    "category": "art",
    "region": "north",
    "link": "/art/%E5%8F%B0%E7%81%A3%E7%AD%96%E5%B1%95%E4%BA%BA%E8%88%87%E8%97%9D%E8%A1%93%E6%96%87%E5%8C%96%E5%BB%BA%E6%A7%8B",
    "lang": "zh-TW",
    "desc": "從 1990 年代初的機構萌芽到今日的國際平台，台灣策展人如何在全球化浪潮中建構本土藝術論述，又如何在國際雙年展體系中找到自己的聲音？一段關於文化身份認同與專業建制的 30 年演化史。",
    "city": "台北"
  },
  {
    "title": "戰後台灣文學：從不能說的事，學會怎麼說（1945-1987）",
    "lat": 22.661,
    "lng": 121.497,
    "category": "art",
    "region": "east",
    "link": "/art/%E6%88%B0%E5%BE%8C%E5%8F%B0%E7%81%A3%E6%96%87%E5%AD%B8",
    "lang": "zh-TW",
    "desc": "1945 年 8 月，葉石濤 20 歲從日本陸軍退伍回到台南，打開稿紙一個中文字都寫不出來。這張白紙要等他 42 年。中間是失語、入獄、論戰、學會迂迴。1987 年 2 月，他出了一本 232 頁的書，書名只有「台灣」兩個字。",
    "city": "台東"
  },
  {
    "title": "林經堯：從太極雲手到演算法，他用「存在卻看不見的」作答",
    "lat": 22.627,
    "lng": 120.301,
    "category": "art",
    "region": "south",
    "link": "/art/%E6%9E%97%E7%B6%93%E5%A0%AF",
    "lang": "zh-TW",
    "desc": "出生於高雄，台北藝術大學音樂作曲學士、新媒體藝術碩士，台灣大學資訊網路與多媒體博士，巴黎高等美術學院博士後。曾任清華大學、南藝大教授，C-LAB 臺灣聲響實驗室總監（2019），現任台大 D-School 創新領域學士學程專案助理教授。2022 年以《Metaphysics》登上 Art Blocks（200 版）、《Mythologic》在香港巴塞爾互動鑄造展出，是 FAB DAO 百岳計畫《秘境》系列的生成藝術家。他的創作核心命題十五年沒變過：「世界上許多事物是可感知但不可見的。」",
    "city": "高雄"
  },
  {
    "title": "王新仁（阿亂）：用程式碼生成山水、把公益寫進合約的生成藝術家",
    "lat": 25.026196,
    "lng": 121.57299,
    "category": "art",
    "region": "north",
    "link": "/art/%E7%8E%8B%E6%96%B0%E4%BB%81",
    "lang": "zh-TW",
    "desc": "1982 年生於台中，台北藝術大學新媒體藝術碩士。2021 年 8 月 22 日，他的《Good Vibrations》成為首位登上 Art Blocks 的臺灣藝術家作品，1,024 份 NFT 一小時內售罄。隔年他加入 FAB DAO《百岳計畫》六人陣容，打造亞洲第一個把公益寫進智能合約的 NFT 永續分潤結構。他的創作橫跨 Art Blocks、Verse.works、fxhash、Tezos，在 Art Basel Hong Kong 展《Chaos Culture》、與 C-LAB 合作沉浸式聲響《好抖》、Polypaths 系列由國立臺灣博物館典藏，2026 年最新作品 inkField 透過 Claude Code 協作開發，把人類的猶豫與停頓留在生成系統裡。",
    "city": "台北"
  },
  {
    "title": "王連晟（蝦爸）：讓 23 台機器同時翻《論語》的台灣聲音裝置藝術家",
    "lat": 25.031756,
    "lng": 121.565669,
    "category": "art",
    "region": "north",
    "link": "/art/%E7%8E%8B%E9%80%A3%E6%99%9F",
    "lang": "zh-TW",
    "desc": "1985 年生於台北，東華資工系、北藝大科技藝術所出身。2017 年他以《閱讀計畫》（23 台自動翻書機械同時朗讀《論語》）在倫敦拿下流明獎（Lumen Prize）雕塑類首獎，隔年再拿台北美術獎首獎。他是台灣聲音藝術團體 i/O Lab 成員、失聲祭 2009-2010 主理人、FAB DAO 百岳計畫六位藝術家之一，現任北藝大新媒體藝術系助理教授。從 2022 年北美館《混沌邊界》五組自動運行裝置，到 2025 年關渡美術館《機器之後》用佛像、基督像、道教神祇的自動化平台審問 AI 倫理，王連晟是把演算法、機械、聲音三條線寫進同一部當代聲音藝術史的台灣創作者。",
    "city": "台北"
  },
  {
    "title": "台灣當代藝術",
    "lat": 25.039933,
    "lng": 121.561357,
    "category": "art",
    "region": "north",
    "link": "/art/%E7%95%B6%E4%BB%A3%E8%97%9D%E8%A1%93",
    "lang": "zh-TW",
    "desc": "從北美館到威尼斯雙年展台灣館，台灣當代藝術在全球舞台的獨特位置",
    "city": "台北"
  },
  {
    "title": "紀柏豪：從經濟學走進聲響的人，用演算法追問一件事——你到底聽進去了嗎",
    "lat": 25.032631,
    "lng": 121.569826,
    "category": "art",
    "region": "north",
    "link": "/art/%E7%B4%80%E6%9F%8F%E8%B1%AA",
    "lang": "zh-TW",
    "desc": "紀柏豪（Pohao Chi），聲音藝術家、作曲家、策展人。台大經濟系畢業，赴倫敦金匠學院取得音樂碩士，2021 年於 MIT 藝術文化科技碩士畢業，同年以《Plantfluencer Gazing》拿下 MIT Harold and Arlene Schnitzer Prize 視覺藝術首獎。早年是 Hello Nico 樂團合成器手，後創立融聲創意 Zone Sound Creative 工作室（2017）。作品《空間的節奏》入選 2014 台北美術獎、《3000 Years Among Microbes》獲文化部補助赴 MIT 合作，2025 年於 C-LAB 聲響藝術節 DIVERSONICS 發表《朗誦者 2.0》。他用演算法、GPS、AI 合成聲音量測世界，卻始終追問同一個問題：怎麼讓人從被動的 hear，回到主動的 listen。",
    "city": "台北"
  },
  {
    "title": "謝德慶：把 14 年非法身分活成一件行為藝術的台灣藝術家",
    "lat": 22.682,
    "lng": 120.484,
    "category": "art",
    "region": "south",
    "link": "/art/%E8%AC%9D%E5%BE%B7%E6%85%B6",
    "lang": "zh-TW",
    "desc": "1978 年紐約 Tribeca，他自願走進自己釘的木籠關了一年，不說話、不讀書、不寫字。接下來五年他用打卡、繩子、街頭流浪把時間變成作品；之後 13 年做藝術但不公開。謝德慶從屏東南州出發，1974 年跳船成為紐約非法移民整整 14 年。當其他藝術家畫自由，他選擇用囚禁證明時間本身就是藝術。",
    "city": "屏東"
  },
  {
    "title": "造山者：世紀的賭注 — 一部沒張忠謀的 TSMC 史詩，從新竹拍到普渡",
    "lat": 24.811962,
    "lng": 120.96735,
    "category": "art",
    "region": "north",
    "link": "/art/%E9%80%A0%E5%B1%B1%E8%80%85%E4%B8%96%E7%B4%80%E7%9A%84%E8%B3%AD%E6%B3%A8",
    "lang": "zh-TW",
    "desc": "2025 年 6 月某個傍晚，84 歲的張忠謀夫婦自費買了兩張票走進信義威秀。電影裡沒有他正面受訪的鏡頭——他正在寫自傳下冊。蕭菊貞花五年訪了 80 多位前輩，從小欣欣豆漿店 1974 年那場早餐會報拍到 2025 年魏哲家進白宮，《造山者：世紀的賭注》（A Chip Odyssey）成為台灣紀錄片影史前五，2026 年走進普渡、威斯康辛、密西根三所 CHIPS Act 投資重鎮的大學講堂。",
    "city": "新竹"
  },
  {
    "title": "金馬賓館當代美術館",
    "lat": 22.626429,
    "lng": 120.304446,
    "category": "art",
    "region": "south",
    "link": "/art/%E9%87%91%E9%A6%AC%E8%B3%93%E9%A4%A8%E7%95%B6%E4%BB%A3%E7%BE%8E%E8%A1%93%E9%A4%A8",
    "lang": "zh-TW",
    "desc": "一座見證離別與重逢的冷戰軍事驛站，沉睡二十年後被一對父女喚醒，成為《孤獨星球》推薦的高雄首選美術館。",
    "city": "高雄"
  },
  {
    "title": "鶯歌陶瓷博物館：清水模裡的百年窯業",
    "lat": 25.012,
    "lng": 121.465,
    "category": "art",
    "region": "north",
    "link": "/art/%E9%B6%AF%E6%AD%8C%E9%99%B6%E7%93%B7%E5%8D%9A%E7%89%A9%E9%A4%A8",
    "lang": "zh-TW",
    "desc": "2000 年 11 月，台灣第一座陶瓷專業博物館在新北市鶯歌區開館，由簡學義設計，以「土、水、火、風」四元素為理念。這座清水模建築把鶯歌從窯業小鎮重新定位為陶藝殿堂，2004 年起的台灣國際陶藝雙年展讓在地工藝接軌全球。",
    "city": "新北"
  },
  {
    "title": "人間雜誌",
    "lat": 24.994,
    "lng": 121.301,
    "category": "culture",
    "region": "north",
    "link": "/culture/%E4%BA%BA%E9%96%93%E9%9B%9C%E8%AA%8C",
    "lang": "zh-TW",
    "desc": "47 期，四年，一場用攝影和文字發動的安靜革命——台灣報導文學的起點",
    "city": "桃園"
  },
  {
    "title": "伊斯蘭教在台灣：從泉州郭姓祖先到三十萬移工的信仰拼圖",
    "lat": 25.027445,
    "lng": 121.562842,
    "category": "culture",
    "region": "north",
    "link": "/culture/%E4%BC%8A%E6%96%AF%E8%98%AD%E6%95%99%E5%9C%A8%E5%8F%B0%E7%81%A3",
    "lang": "zh-TW",
    "desc": "2025年台灣穆斯林人口突破30萬，這座島嶼的伊斯蘭印記橫跨四百年。從鹿港郭厝的祭祖禁忌，到台北車站黑白格大廳的開齋盛會，台灣正經歷一場從「隱藏祖源」到「異鄉故鄉」的信仰重構。",
    "city": "台北"
  },
  {
    "title": "兩廳院：從威權符號到全民藝文殿堂的轉型之路",
    "lat": 25.036,
    "lng": 121.522,
    "category": "culture",
    "region": "north",
    "link": "/culture/%E5%85%A9%E5%BB%B3%E9%99%A2",
    "lang": "zh-TW",
    "desc": "1987年落成時，兩廳院是紀念蔣中正的宮殿式建築，鐵柵門把市民擋在外頭。2003年朱宗慶拆了那道門，2004年成為台灣第一個行政法人。荷蘭Flentrop管風琴4,172根音管埋在牆後，藝術總監劉怡汝說藝文場館要看見「看不見的障礙」。",
    "city": "台北"
  },
  {
    "title": "台灣原住民神話：從洪水到創世的口傳史詩",
    "lat": 23.47,
    "lng": 120.957,
    "category": "culture",
    "region": "central",
    "link": "/culture/%E5%8E%9F%E4%BD%8F%E6%B0%91%E7%A5%9E%E8%A9%B1",
    "lang": "zh-TW",
    "desc": "台灣原住民神話不僅是古老故事，更是族群記憶與文化傳承的活化石，承載著與自然共存的智慧與生命觀。",
    "city": "南投"
  },
  {
    "title": "台灣原住民族16族文化地圖",
    "lat": 22.033,
    "lng": 121.549,
    "category": "culture",
    "region": "east",
    "link": "/culture/%E5%8F%B0%E7%81%A3%E5%8E%9F%E4%BD%8F%E6%B0%91%E6%97%8F16%E6%97%8F%E6%96%87%E5%8C%96%E5%9C%B0%E5%9C%96",
    "lang": "zh-TW",
    "desc": "「16」不是自然生成的數字，是談判的結果。從21萬阿美族到441人的卡那卡那富族，台灣原住民族的文化厚度遠超過任何一份官方名冊。",
    "city": "台東"
  },
  {
    "title": "台灣宗教信仰：在恐懼裡長出的信仰帝國",
    "lat": 25.038691,
    "lng": 121.559229,
    "category": "culture",
    "region": "north",
    "link": "/culture/%E5%8F%B0%E7%81%A3%E5%AE%97%E6%95%99%E8%88%87%E5%AF%BA%E5%BB%9F%E6%96%87%E5%8C%96",
    "lang": "zh-TW",
    "desc": "全世界廟宇密度最高、宗教自由排名亞洲第二的島嶼，最大宗的兩個信仰——王爺與媽祖——歷史起源都跟瘟疫和死亡有關。從 17 世紀軍事移民帶神像渡黑水溝，到 2025 年自由度報告的 94 分；從 1953 一貫道被查禁、1987 解嚴第一個合法化，到四大佛教山頭跟長老教會在政教關係上各走各的路——台灣的信仰不在經文裡，在轉角的香火中。",
    "city": "台北"
  },
  {
    "title": "台灣感性：韓國人眼中的台式美學",
    "lat": 25.057,
    "lng": 121.51,
    "category": "culture",
    "region": "north",
    "link": "/culture/%E5%8F%B0%E7%81%A3%E6%84%9F%E6%80%A7",
    "lang": "zh-TW",
    "desc": "兩個高雄人花十年拍下兩千種鐵窗花，韓國人花五年把它拍成一個文化現象——「대만감성」如何讓台灣的日常街景成為亞洲最迷人的美學符號",
    "city": "台北"
  },
  {
    "title": "台灣教會公報：一份活了一百四十年的報紙，和它被沒收的那一天",
    "lat": 22.999,
    "lng": 120.227,
    "category": "culture",
    "region": "south",
    "link": "/culture/%E5%8F%B0%E7%81%A3%E6%95%99%E6%9C%83%E5%85%AC%E5%A0%B1",
    "lang": "zh-TW",
    "desc": "1885年，英國宣教師巴克禮在台南用白話字印了台灣第一份報紙。這份報紙被日本政府停刊過、被國民黨禁止使用母語、1987年因報導228事件遭警備總部整批扣押。每一次被壓制，它都活了回來。2025年它滿140歲，副刊上在討論生成式AI。",
    "city": "台南"
  },
  {
    "title": "台灣文化創意園區發展",
    "lat": 22.617579,
    "lng": 120.287157,
    "category": "culture",
    "region": "south",
    "link": "/culture/%E5%8F%B0%E7%81%A3%E6%96%87%E5%8C%96%E5%89%B5%E6%84%8F%E5%9C%92%E5%8D%80%E7%99%BC%E5%B1%95",
    "lang": "zh-TW",
    "desc": "從舊建築活化到創意聚落，台灣文化創意園區的發展歷程與創新模式",
    "city": "高雄"
  },
  {
    "title": "台灣殯葬文化與生死觀",
    "lat": 25.027607,
    "lng": 121.569622,
    "category": "culture",
    "region": "north",
    "link": "/culture/%E5%8F%B0%E7%81%A3%E6%AE%AF%E8%91%AC%E6%96%87%E5%8C%96%E8%88%87%E7%94%9F%E6%AD%BB%E8%A7%80",
    "lang": "zh-TW",
    "desc": "從孝女白琴的哭聲到詠愛園的樹葬——台灣人花了五十年從土葬走向火葬，又花十年從靈骨塔走向一棵樹下。",
    "city": "台北"
  },
  {
    "title": "台灣獸迷文化",
    "lat": 22.623922,
    "lng": 120.304907,
    "category": "culture",
    "region": "south",
    "link": "/culture/%E5%8F%B0%E7%81%A3%E7%8D%B8%E8%BF%B7%E6%96%87%E5%8C%96",
    "lang": "zh-TW",
    "desc": "2015 年，台灣第一場獸迷大會只來了約 50 人，獸裝師不到 10 個。十年後，獸無限單場 3,251 人、689 套獸裝同台、慈善募款近百萬元。台灣獸迷從撥接時代的 BBS 討論，長成了亞洲最具組織力的擬人化動物愛好者社群。",
    "city": "高雄"
  },
  {
    "title": "台灣老街文化與商業街區",
    "lat": 25.109,
    "lng": 121.845,
    "category": "culture",
    "region": "north",
    "link": "/culture/%E5%8F%B0%E7%81%A3%E8%80%81%E8%A1%97%E6%96%87%E5%8C%96%E8%88%87%E5%95%86%E6%A5%AD%E8%A1%97%E5%8D%80",
    "lang": "zh-TW",
    "desc": "從清代港口繁華到日治巴洛克洋樓，台灣老街是一部用磚瓦寫成的庶民史",
    "city": "新北"
  },
  {
    "title": "黃金時代的餘韻：台灣茶文化的流變與工藝",
    "lat": 23.51,
    "lng": 120.7,
    "category": "culture",
    "region": "south",
    "link": "/culture/%E5%8F%B0%E7%81%A3%E8%8C%B6%E6%96%87%E5%8C%96",
    "lang": "zh-TW",
    "desc": "1930年代列強簽了限產協定把台灣排除在外，結果台灣紅茶趁勢暴衝——從329萬公斤到580萬。90年後，同一座島嶼每30分鐘開一家手搖飲店。",
    "city": "嘉義"
  },
  {
    "title": "台灣茶道與生活美學",
    "lat": 23.505791,
    "lng": 120.706232,
    "category": "culture",
    "region": "south",
    "link": "/culture/%E5%8F%B0%E7%81%A3%E8%8C%B6%E9%81%93%E8%88%87%E7%94%9F%E6%B4%BB%E7%BE%8E%E5%AD%B8",
    "lang": "zh-TW",
    "desc": "一隻蟲咬出的蜜香、一棟日式老屋裡的民主運動、一杯珍奶征服的全球市場——台灣茶文化如何從殖民遺產長成獨特的生活美學",
    "city": "嘉義"
  },
  {
    "title": "台灣街頭藝術與塗鴉文化",
    "lat": 25.025863,
    "lng": 121.567597,
    "category": "culture",
    "region": "north",
    "link": "/culture/%E5%8F%B0%E7%81%A3%E8%A1%97%E9%A0%AD%E8%97%9D%E8%A1%93%E8%88%87%E5%A1%97%E9%B4%89%E6%96%87%E5%8C%96",
    "lang": "zh-TW",
    "desc": "從地下塗鴉到合法彩繪，城市牆面如何成為台灣藝術家的創作舞台",
    "city": "台北"
  },
  {
    "title": "台灣製香文化與香腳原鄉",
    "lat": 24.055,
    "lng": 120.437,
    "category": "culture",
    "region": "central",
    "link": "/culture/%E5%8F%B0%E7%81%A3%E8%A3%BD%E9%A6%99%E6%96%87%E5%8C%96%E8%88%87%E9%A6%99%E8%85%B3%E5%8E%9F%E9%84%89",
    "lang": "zh-TW",
    "desc": "從嘉義雲霄社區的百年香腳技藝，到台灣遍布全島的製香產業——一門關於虔誠、手藝與堅持的古老行業",
    "city": "彰化"
  },
  {
    "title": "台灣諧音禁忌文化：為什麼「四」讓整個社會跳過樓層？",
    "lat": 24.989727,
    "lng": 121.305087,
    "category": "culture",
    "region": "north",
    "link": "/culture/%E5%8F%B0%E7%81%A3%E8%AB%A7%E9%9F%B3%E7%A6%81%E5%BF%8C%E6%96%87%E5%8C%96",
    "lang": "zh-TW",
    "desc": "從醫院沒有四樓到車牌8888天價標售，台灣人對諧音的敏感程度堪稱世界之最",
    "city": "桃園"
  },
  {
    "title": "國立故宮博物院",
    "lat": 25.102,
    "lng": 121.549,
    "category": "culture",
    "region": "north",
    "link": "/culture/%E5%9C%8B%E7%AB%8B%E6%95%85%E5%AE%AE%E5%8D%9A%E7%89%A9%E9%99%A2",
    "lang": "zh-TW",
    "desc": "它是這座島嶼上最沈重的「行李」，也是最輕盈的「數位幻境」。從戰火中的木箱到 AI 算力下的像素，故宮正試圖在台北外雙溪與嘉義太保之間，定義什麼是「台灣的故宮」。",
    "city": "台北"
  },
  {
    "title": "客家文化與語言",
    "lat": 22.677602,
    "lng": 120.490614,
    "category": "culture",
    "region": "south",
    "link": "/culture/%E5%AE%A2%E5%AE%B6%E6%96%87%E5%8C%96%E8%88%87%E8%AA%9E%E8%A8%80",
    "lang": "zh-TW",
    "desc": "一群人在 1988 年把孫中山的照片戴上口罩遊行，只為了爭回說母語的權利——他們贏了，但語言還在消失",
    "city": "屏東"
  },
  {
    "title": "布袋戲：從廟埕禁令到《東離劍遊紀》的掌中宇宙",
    "lat": 23.709,
    "lng": 120.431,
    "category": "culture",
    "region": "central",
    "link": "/culture/%E5%B8%83%E8%A2%8B%E6%88%B2",
    "lang": "zh-TW",
    "desc": "1970年3月2日，黃俊雄的史豔文讓全台灣工廠怠工、學生蹺課，創下97%收視率；四年後政府以「妨害農工正常作息」為由禁播。這門在台灣歷經皇民化壓制、電視禁令和錄影帶革命的掌中藝術，最終以《東離劍遊紀》敲開了全球動漫市場。",
    "city": "雲林"
  },
  {
    "title": "擲筊：在 50% 的機率背後，聽見神明的聲音",
    "lat": 23.48,
    "lng": 120.449,
    "category": "culture",
    "region": "south",
    "link": "/culture/%E6%93%B2%E7%AD%8A",
    "lang": "zh-TW",
    "desc": "從嘉義竹頭筊職人黃奕薰的堅持，到屏東慈天宮 20 個聖筊的 300 萬傳奇，探討台灣人與神明溝通的機率與溫度。",
    "city": "嘉義"
  },
  {
    "title": "斗笠：龍肚國中旁那對夫妻，把六十年的桂竹編進一頂帽子裡",
    "lat": 24.988229,
    "lng": 121.297602,
    "category": "culture",
    "region": "north",
    "link": "/culture/%E6%96%97%E7%AC%A0",
    "lang": "zh-TW",
    "desc": "2017 年高雄美濃林榮春八十多歲還在削竹篾，2014 年台南龍崎陳連親奶奶八十六歲一小時做一頂；花蓮富里徐貴珠 2016 年一頂只賣 150 元；2022 年客傳會《傳、傳》紀錄片裡苗栗吳進運、徐寶妹做了五十年。新竹芎林全盛期家家戶戶堆桂竹，桃園蘆竹坑子三十戶日產百頂——如今全島會做粗工斗笠的師傅多半超過七十歲，2024 年原保地禁伐補償加碼到每公頃 6 萬元後連桂竹採料都在斷鏈。斗笠沒從田裡消失，消失的是會把竹葉夾進竹篾骨架、再用棉線一圈圈固定下來的那雙手。",
    "city": "桃園"
  },
  {
    "title": "族群（閩南客家原住民外省新住民）",
    "lat": 25.034158,
    "lng": 121.55942,
    "category": "culture",
    "region": "north",
    "link": "/culture/%E6%97%8F%E7%BE%A4%EF%BC%88%E9%96%A9%E5%8D%97%E5%AE%A2%E5%AE%B6%E5%8E%9F%E4%BD%8F%E6%B0%91%E5%A4%96%E7%9C%81%E6%96%B0%E4%BD%8F%E6%B0%91%EF%BC%89",
    "lang": "zh-TW",
    "desc": "一場道歉儀式、一萬人的遊行、57萬個新來的家庭——台灣族群的故事，比「多元共融」四個字複雜得多。",
    "city": "台北"
  },
  {
    "title": "澎湖民俗文化",
    "lat": 23.571,
    "lng": 119.579,
    "category": "culture",
    "region": "islands",
    "link": "/culture/%E6%BE%8E%E6%B9%96%E6%B0%91%E4%BF%97%E6%96%87%E5%8C%96",
    "lang": "zh-TW",
    "desc": "每年正月十五，澎湖兩百多座廟宇同時擲筊、四萬七千斤米龜堆上供桌——這座被東北季風吹了四百年的群島，用乞龜換回出海的人，用石滬困住退潮的魚，用褒歌對唱一整個冬天的寂寞。",
    "city": "澎湖"
  },
  {
    "title": "皮影戲：從「皮影戲窟」彌陀到皇民化的猿蟹合戰",
    "lat": 22.634694,
    "lng": 120.305183,
    "category": "culture",
    "region": "south",
    "link": "/culture/%E7%9A%AE%E5%BD%B1%E6%88%B2",
    "lang": "zh-TW",
    "desc": "台灣皮影戲的根在高雄彌陀，傳說三百年前隨鄭成功來台的阿萬師把技藝留在了這座小鎮。1937年皇民化運動逼迫藝師用日語演出《猿蟹合戰》，劇團因此獲選「第一奉公團」倖存至今。東華皮影戲團傳承六代，是台灣仍在演出的最古老家族偶戲。",
    "city": "高雄"
  },
  {
    "title": "神豬：台灣信仰與動物權的百年拉扯與轉型之路",
    "lat": 25.028907,
    "lng": 121.562728,
    "category": "culture",
    "region": "north",
    "link": "/culture/%E7%A5%9E%E8%B1%AC",
    "lang": "zh-TW",
    "desc": "神豬文化是台灣閩客族群特有的祭祀傳統，核心在於將巨型豬隻獻祭神明。其起源於清代義民信仰，經日治時期畜牧推廣轉向競重，現代則因「下窟」限制行動與強迫灌食引發動物福利爭議。各地祭典正以「創意神豬」或「自然飼養」轉型，尋求信仰與生命尊嚴的平衡。",
    "city": "台北"
  },
  {
    "title": "紙傘：從雨具到藝術，撐起台灣客家文化的百年風華",
    "lat": 22.630755,
    "lng": 120.300902,
    "category": "culture",
    "region": "south",
    "link": "/culture/%E7%B4%99%E5%82%98",
    "lang": "zh-TW",
    "desc": "在高雄美濃，一把看似尋常的紙傘，不僅承載著客家「早生貴子」與「圓滿」的祝福，更在產業低谷中，透過匠人林享麟的堅持與《漢聲》雜誌的報導，從日常雨具蛻變為國際矚目的藝術品，訴說著台灣傳統工藝如何逆境重生，並在現代社會中找到新定位的百年故事。",
    "city": "高雄"
  },
  {
    "title": "藍染",
    "lat": 24.561,
    "lng": 120.821,
    "category": "culture",
    "region": "central",
    "link": "/culture/%E8%97%8D%E6%9F%93",
    "lang": "zh-TW",
    "desc": "它曾經是台灣排名第三的出口商品，讓北台灣的山城一夜致富；後來它消失了半個世紀，直到一群人決定把那抹「台灣藍」從土裡種回來。",
    "city": "苗栗"
  },
  {
    "title": "關聖帝君：一個敗軍之將如何成為台灣的萬能之神",
    "lat": 25.033835,
    "lng": 121.568219,
    "category": "culture",
    "region": "north",
    "link": "/culture/%E9%97%9C%E8%81%96%E5%B8%9D%E5%90%9B%E4%BF%A1%E4%BB%B0",
    "lang": "zh-TW",
    "desc": "三國武將關羽兵敗被斬首，卻在台灣演化出全球獨有的「恩主公」信仰體系——而全台最繁忙的關帝廟，連一炷香都不讓你燒。",
    "city": "台北"
  },
  {
    "title": "黑白大廚在台灣：一檔 Netflix 韓綜，16 個月內接進 7 條消費產業的味覺壓力測試",
    "lat": 24.995646,
    "lng": 121.298522,
    "category": "culture",
    "region": "north",
    "link": "/culture/%E9%BB%91%E7%99%BD%E5%A4%A7%E5%BB%9A%E5%9C%A8%E5%8F%B0%E7%81%A3",
    "lang": "zh-TW",
    "desc": "2024 年 9 月，Netflix《黑白大廚：料理階級大戰》首播當週就在台灣奪下收視冠軍。接下來 16 個月，節目裡 9 位韓國主廚透過聯名、客座、代言的方式，把觸角伸進台灣超商鮮食、手搖飲、速食連鎖、五星飯店自助餐、外送平台、連鎖韓食、甚至 Galaxy Z 摺疊機——七條幾乎互不相關的消費產業。其中金太星背書的手搖品牌「十盛」撐了 20 個月後於 2025-12-26 歇業，是台灣第一次對「韓綜主廚背書」做反向檢驗。",
    "city": "桃園"
  },
  {
    "title": "台灣中小企業與隱形冠軍：171萬家平凡無奇企業撐起的經濟奇蹟",
    "lat": 24.073454,
    "lng": 120.535511,
    "category": "economy",
    "region": "central",
    "link": "/economy/%E5%8F%B0%E7%81%A3%E4%B8%AD%E5%B0%8F%E4%BC%81%E6%A5%AD%E8%88%87%E9%9A%B1%E5%BD%A2%E5%86%A0%E8%BB%8D",
    "lang": "zh-TW",
    "desc": "真正支撐台灣經濟的不是護國神山，而是171萬家看似平凡、卻創造79%就業機會的隱形冠軍。從1960年代黑手師傅起家，到今日掌控全球利基市場的精密製造王國。",
    "city": "彰化"
  },
  {
    "title": "中鋼：鐵頭部長與十大建設的鋼鐵傳奇",
    "lat": 22.633581,
    "lng": 120.294587,
    "category": "economy",
    "region": "south",
    "link": "/economy/%E5%8F%B0%E7%81%A3%E4%BC%81%E6%A5%AD%EF%BC%9A%E4%B8%AD%E9%8B%BC",
    "lang": "zh-TW",
    "desc": "從趙耀東歐美談判智取技術，到高雄小港升起的第一縷白煙，中鋼用50年打造台灣重工業脊樑，是十大建設最成功的明珠",
    "city": "高雄"
  },
  {
    "title": "台泥：台灣第一上市公司的綠色轉型傳奇",
    "lat": 22.989984,
    "lng": 120.153088,
    "category": "economy",
    "region": "south",
    "link": "/economy/%E5%8F%B0%E7%81%A3%E4%BC%81%E6%A5%AD%EF%BC%9A%E5%8F%B0%E6%B3%A5",
    "lang": "zh-TW",
    "desc": "1962年台灣證交所為它而生，股票代號1101象徵台股起源。從辜家三代經營76年，台泥用一座座水泥窯見證台灣建設奇蹟，如今轉型綠色企業迎戰碳中和時代",
    "city": "台南"
  },
  {
    "title": "台灣企業：台積電",
    "lat": 24.796453,
    "lng": 120.962246,
    "category": "economy",
    "region": "north",
    "link": "/economy/%E5%8F%B0%E7%81%A3%E4%BC%81%E6%A5%AD%EF%BC%9A%E5%8F%B0%E7%A9%8D%E9%9B%BB",
    "lang": "zh-TW",
    "desc": "一個 56 歲的人在 1987 年創辦了一種「全世界沒人做過」的公司，然後它變成了地球上最重要的工廠",
    "city": "新竹"
  },
  {
    "title": "奇美實業：許文龍的壓克力王國與博物館夢想",
    "lat": 22.935,
    "lng": 120.226,
    "category": "economy",
    "region": "south",
    "link": "/economy/%E5%8F%B0%E7%81%A3%E4%BC%81%E6%A5%AD%EF%BC%9A%E5%A5%87%E7%BE%8E%E5%AF%A6%E6%A5%AD",
    "lang": "zh-TW",
    "desc": "從1960年台南仁德小工廠起步，許文龍用一生打造亞洲最大ABS材料王國，更創建奇美博物館回饋社會。證明台灣企業可以兼顧商業成功與人文關懷",
    "city": "台南"
  },
  {
    "title": "宏碁集團 (Acer) - PC 產業的變革先驅",
    "lat": 24.992859,
    "lng": 121.30274,
    "category": "economy",
    "region": "north",
    "link": "/economy/%E5%8F%B0%E7%81%A3%E4%BC%81%E6%A5%AD%EF%BC%9A%E5%AE%8F%E7%A2%81",
    "lang": "zh-TW",
    "desc": "從台灣桃園起家的個人電腦先驅，創造「多品牌、多通路」商業模式，成為全球 PC 產業的變革引擎",
    "city": "桃園"
  },
  {
    "title": "台灣企業：巨大機械",
    "lat": 25.035012,
    "lng": 121.567106,
    "category": "economy",
    "region": "north",
    "link": "/economy/%E5%8F%B0%E7%81%A3%E4%BC%81%E6%A5%AD%EF%BC%9A%E5%B7%A8%E5%A4%A7%E6%A9%9F%E6%A2%B0",
    "lang": "zh-TW",
    "desc": "從被美國大廠拋棄的代工奴隸，到制定全球自行車技術標準的隱形帝國",
    "city": "台北"
  },
  {
    "title": "台灣企業：廣達電腦",
    "lat": 25.025415,
    "lng": 121.571891,
    "category": "economy",
    "region": "north",
    "link": "/economy/%E5%8F%B0%E7%81%A3%E4%BC%81%E6%A5%AD%EF%BC%9A%E5%BB%A3%E9%81%94%E9%9B%BB%E8%85%A6",
    "lang": "zh-TW",
    "desc": "從工廠火災到全球筆電王，林百里如何建造AI時代的新帝國？",
    "city": "台北"
  },
  {
    "title": "台灣企業：日月光半導體",
    "lat": 22.633052,
    "lng": 120.300635,
    "category": "economy",
    "region": "south",
    "link": "/economy/%E5%8F%B0%E7%81%A3%E4%BC%81%E6%A5%AD%EF%BC%9A%E6%97%A5%E6%9C%88%E5%85%89%E5%8D%8A%E5%B0%8E%E9%AB%94",
    "lang": "zh-TW",
    "desc": "全球第一大封測廠，建設公司老闆為何轉戰半導體？",
    "city": "高雄"
  },
  {
    "title": "台灣企業：玉山金控",
    "lat": 23.468079,
    "lng": 120.9576,
    "category": "economy",
    "region": "central",
    "link": "/economy/%E5%8F%B0%E7%81%A3%E4%BC%81%E6%A5%AD%EF%BC%9A%E7%8E%89%E5%B1%B1%E9%87%91%E6%8E%A7",
    "lang": "zh-TW",
    "desc": "從信用卡專業銀行到數位金融先鋒，43歲最年輕金控總經理的突破故事",
    "city": "南投"
  },
  {
    "title": "義美：百年固執、食安良心，與社會共好的多維實踐",
    "lat": 25.050948,
    "lng": 121.506082,
    "category": "economy",
    "region": "north",
    "link": "/economy/%E5%8F%B0%E7%81%A3%E4%BC%81%E6%A5%AD%EF%BC%9A%E7%BE%A9%E7%BE%8E%E9%A3%9F%E5%93%81",
    "lang": "zh-TW",
    "desc": "義美食品，這家從日治時期大稻埕「大安醫院」原址起家的糕餅店，如何在高騰蛟與高志明兩代人的固執經營下，成為台灣食品產業的標竿？本文深入探討其從傳統糕餅到現代通路、從食安實驗室到機器人產業的多維實踐，以及其在社會責任與品牌神話中的挑戰與轉型。",
    "city": "台北"
  },
  {
    "title": "遠東集團：從上海紡織廠到台灣最多元化商業帝國",
    "lat": 25.013488,
    "lng": 121.465882,
    "category": "economy",
    "region": "north",
    "link": "/economy/%E5%8F%B0%E7%81%A3%E4%BC%81%E6%A5%AD%EF%BC%9A%E9%81%A0%E6%9D%B1%E9%9B%86%E5%9C%98",
    "lang": "zh-TW",
    "desc": "87年前上海的一間小紡織廠，如何演變成跨越十大產業、資產逾3兆的台灣商業帝國？遠東集團的發展史，見證了台商從榮耀到政治風險的完整軌跡",
    "city": "新北"
  },
  {
    "title": "台灣企業：長春石化",
    "lat": 22.992677,
    "lng": 120.229949,
    "category": "economy",
    "region": "south",
    "link": "/economy/%E5%8F%B0%E7%81%A3%E4%BC%81%E6%A5%AD%EF%BC%9A%E9%95%B7%E6%98%A5%E7%9F%B3%E5%8C%96",
    "lang": "zh-TW",
    "desc": "1949年台南小工廠到全球化工巨頭，「不上市不借錢」的隱形冠軍故事",
    "city": "台南"
  },
  {
    "title": "台灣企業：鴻海精密：8 兆營收與內部反貪戰爭的同一張資產負債表",
    "lat": 25.039204,
    "lng": 121.565273,
    "category": "economy",
    "region": "north",
    "link": "/economy/%E5%8F%B0%E7%81%A3%E4%BC%81%E6%A5%AD%EF%BC%9A%E9%B4%BB%E6%B5%B7%E7%B2%BE%E5%AF%86",
    "lang": "zh-TW",
    "desc": "2026 年 4 月 30 日上午，《時代》雜誌把鴻海列入百大影響力企業；同一天傍晚，檢調人員手持搜索票走進鴻海土城廠。從 1974 年母親標會 10 萬到 2025 年雲端網路超越消費電子的 8 兆營收，鴻海最難管的不是地緣政治、不是 AI 機櫃出貨節奏，是自己人。",
    "city": "台北"
  },
  {
    "title": "台灣機械工具產業",
    "lat": 24.148,
    "lng": 120.674,
    "category": "economy",
    "region": "central",
    "link": "/economy/%E5%8F%B0%E7%81%A3%E6%A9%9F%E6%A2%B0%E5%B7%A5%E5%85%B7%E7%94%A2%E6%A5%AD",
    "lang": "zh-TW",
    "desc": "從大肚山黃金縱谷到 TMTS 2026，台灣工具機產業的韌性、崩盤、重生，以及為什麼 2024 年從全球第 5 掉到第 7 的結構性焦慮。",
    "city": "台中"
  },
  {
    "title": "台灣股市與資本市場：從 1990 萬點崩盤到 2026 全球第 6 大，44% 身家壓在一檔上的島嶼",
    "lat": 25.026195,
    "lng": 121.557736,
    "category": "economy",
    "region": "north",
    "link": "/economy/%E5%8F%B0%E7%81%A3%E8%82%A1%E5%B8%82%E8%88%87%E8%B3%87%E6%9C%AC%E5%B8%82%E5%A0%B4",
    "lang": "zh-TW",
    "desc": "2026 年 4 月 28 日彭博跳出「Taiwan Overtakes Canada」。一個曾在 1990 年萬點崩盤帶走十六萬人退休金的島嶼，三十六年後攻上全球第 6 大股市——但市值 4.47 兆美元裡，接近一半壓在一家半導體公司身上。",
    "city": "台北"
  },
  {
    "title": "夜市經濟學：一場沒有品牌的商業奇蹟",
    "lat": 24.179,
    "lng": 120.647,
    "category": "economy",
    "region": "central",
    "link": "/economy/%E5%A4%9C%E5%B8%82%E7%B6%93%E6%BF%9F%E5%AD%B8",
    "lang": "zh-TW",
    "desc": "探索台灣夜市如何在沒有品牌、裝潢和固定地點的情況下，創造年產值近4000億的經濟奇蹟",
    "city": "台中"
  },
  {
    "title": "發票：1951 年那張把全民變成稅務稽查員的紙",
    "lat": 25.027913,
    "lng": 121.563145,
    "category": "economy",
    "region": "north",
    "link": "/economy/%E7%99%BC%E7%A5%A8",
    "lang": "zh-TW",
    "desc": "1951 年元旦，台灣省財政廳長任顯群把抽獎號碼印在每一張收據上，要求全台商家照著開。一張 20 元的飲料發票同時是交易明細、抽獎券，也是政府放出去的稽查耳目。70 年後它演化成雲端載具、社福命脈、AI 演算法爭議，從威權時期的財政急救包長成台灣特有的數位治理樣本。",
    "city": "台北"
  },
  {
    "title": "經濟奇蹟",
    "lat": 22.627996,
    "lng": 120.302137,
    "category": "economy",
    "region": "south",
    "link": "/economy/%E7%B6%93%E6%BF%9F%E5%A5%87%E8%B9%9F",
    "lang": "zh-TW",
    "desc": "1952年，台灣人均GDP只有196美元，比海地還窮。40年後，台灣成為「亞洲四小龍」之首，人均GDP超過1萬美元。但這個「奇蹟」的代價是什麼？當我們讚美台灣錢淹腳目的年代時，很少人談起那些在加工出口區裡每天工作12小時的女工，和那些把一生積蓄押在小工廠裡的老闆們。",
    "city": "高雄"
  },
  {
    "title": "三峽茶：從「青心柑仔」的螺旋轉向，到夏茶價值的蜜香升級",
    "lat": 25.030696,
    "lng": 121.56275,
    "category": "food",
    "region": "north",
    "link": "/food/%E4%B8%89%E5%B3%BD%E8%8C%B6",
    "lang": "zh-TW",
    "desc": "三峽是台灣最具代表性的專業炒菁綠茶產區，其產業路徑是一場關於「適應」的長期實驗。從清同治年間的陶德發現，到日治時期綠茶外銷的受壓制，再到 1990 年代末期碧螺春的正式定名，三峽茶農在特有品種與土地開發的夾縫中，勾勒出台灣綠茶的在地標準。",
    "city": "台北"
  },
  {
    "title": "台灣咖啡文化：便利商店一年賣六億杯的島嶼",
    "lat": 23.508142,
    "lng": 120.696602,
    "category": "food",
    "region": "south",
    "link": "/food/%E5%8F%B0%E7%81%A3%E5%92%96%E5%95%A1%E6%96%87%E5%8C%96",
    "lang": "zh-TW",
    "desc": "日治時期從雲林古坑種下的第一棵咖啡樹，一百年後長成了每五十公尺一家咖啡廳的都市風景。路易莎開到六百家，超過星巴克。阿里山咖啡打進國際賽。台灣人的咖啡，從來不只是咖啡。",
    "city": "嘉義"
  },
  {
    "title": "台灣咖啡產業",
    "lat": 23.5086,
    "lng": 120.704348,
    "category": "food",
    "region": "south",
    "link": "/food/%E5%8F%B0%E7%81%A3%E5%92%96%E5%95%A1%E7%94%A2%E6%A5%AD",
    "lang": "zh-TW",
    "desc": "從德記洋行1884年的100株苗木到2024年首屆CoE卓越盃，一個島嶼如何在140年間打造出年進口4.3萬公噸的咖啡王國",
    "city": "嘉義"
  },
  {
    "title": "台灣小吃",
    "lat": 25.088,
    "lng": 121.524,
    "category": "food",
    "region": "north",
    "link": "/food/%E5%8F%B0%E7%81%A3%E5%B0%8F%E5%90%83",
    "lang": "zh-TW",
    "desc": "1987年春水堂的一個失誤，讓珍珠奶茶走進60國市場。台灣小吃從清代移民的生存工具，到今天23.3萬個攤位撐起的4000億產業：它的成功方程式不是精緻化，而是那種「管它的，先試試看」的草根勇氣。",
    "city": "台北"
  },
  {
    "title": "台灣手路菜：意思、由來與辦桌文化的「拿手好菜」",
    "lat": 22.622566,
    "lng": 120.308423,
    "category": "food",
    "region": "south",
    "link": "/food/%E5%8F%B0%E7%81%A3%E6%89%8B%E8%B7%AF%E8%8F%9C",
    "lang": "zh-TW",
    "desc": "手路菜（台語 tshiú-lōo-tshài）是「拿手好菜」的意思。高雄內門的白堊土種不出作物，卻養出全台密度最高的總鋪師——黃金年代一年辦 25,000 桌，大月營收 1,200 萬。一鍋菜尾湯要花四到八小時，結得好不好，全村隔天都知道。",
    "city": "高雄"
  },
  {
    "title": "台灣新住民美食融合",
    "lat": 25.040847,
    "lng": 121.567585,
    "category": "food",
    "region": "north",
    "link": "/food/%E5%8F%B0%E7%81%A3%E6%96%B0%E4%BD%8F%E6%B0%91%E7%BE%8E%E9%A3%9F%E8%9E%8D%E5%90%88",
    "lang": "zh-TW",
    "desc": "當泰式酸辣遇上台灣甜鹹、當越南河粉邂逅台式滷味、當印尼香料擁抱本土食材，一場跨越國界的味覺革命正在台灣悄然發生。新住民帶來的不只是故鄉的料理，更是豐富台灣美食文化的全新可能。",
    "city": "台北"
  },
  {
    "title": "台灣海鮮文化",
    "lat": 25.128,
    "lng": 121.739,
    "category": "food",
    "region": "north",
    "link": "/food/%E5%8F%B0%E7%81%A3%E6%B5%B7%E9%AE%AE%E6%96%87%E5%8C%96",
    "lang": "zh-TW",
    "desc": "漁港新鮮直送、海鮮餐廳文化、蚵仔煎等海味料理，展現台灣四面環海的島嶼特色與豐富的海鮮飲食傳統",
    "city": "基隆"
  },
  {
    "title": "台灣滷肉飯",
    "lat": 25.027276,
    "lng": 121.560287,
    "category": "food",
    "region": "north",
    "link": "/food/%E5%8F%B0%E7%81%A3%E6%BB%B7%E8%82%89%E9%A3%AF",
    "lang": "zh-TW",
    "desc": "從眷村廚房到國民美食，探索台灣滷肉飯的南北戰爭與文化認同",
    "city": "台北"
  },
  {
    "title": "台灣米其林：星光下的代價與重新定義",
    "lat": 25.028838,
    "lng": 121.560798,
    "category": "food",
    "region": "north",
    "link": "/food/%E5%8F%B0%E7%81%A3%E7%B1%B3%E5%85%B6%E6%9E%97%E8%88%87%E7%B2%BE%E7%B7%BB%E9%A4%90%E9%A3%B2",
    "lang": "zh-TW",
    "desc": "2018 年米其林登陸台灣，表面上是國際認證的榮耀，實際上重新劃分了餐飲業的生存規則——「幾乎夠格」的餐廳，反而成了最大受害者。",
    "city": "台北"
  },
  {
    "title": "台灣米食文化",
    "lat": 24.803801,
    "lng": 120.973955,
    "category": "food",
    "region": "north",
    "link": "/food/%E5%8F%B0%E7%81%A3%E7%B1%B3%E9%A3%9F%E6%96%87%E5%8C%96",
    "lang": "zh-TW",
    "desc": "從年吃 85 公斤到 42 公斤：一個稻米島國的飲食革命與文化堅持",
    "city": "新竹"
  },
  {
    "title": "台灣糕餅文化",
    "lat": 24.04715,
    "lng": 120.433547,
    "category": "food",
    "region": "central",
    "link": "/food/%E5%8F%B0%E7%81%A3%E7%B3%95%E9%A4%85%E6%96%87%E5%8C%96",
    "lang": "zh-TW",
    "desc": "從 1877 鹿港玉珍齋的鳳眼糕到 2026 陳耀訓拓元售票系統 30 秒完售的紅土蛋黃酥，台灣糕餅 150 年的層次故事。中間夾著日治一福堂的方塊鳳梨酥革命、豐原寶泉的橄欖形蛋黃酥實驗、八卦山下 270 公頃土鳳梨契作、油皮包油酥的工藝突變，以及百年漢餅鋪跟世界麵包冠軍站在同一張中秋餐桌上。",
    "city": "彰化"
  },
  {
    "title": "台灣素食文化",
    "lat": 25.026632,
    "lng": 121.561246,
    "category": "food",
    "region": "north",
    "link": "/food/%E5%8F%B0%E7%81%A3%E7%B4%A0%E9%A3%9F%E6%96%87%E5%8C%96",
    "lang": "zh-TW",
    "desc": "台灣素食人口比例全球前三，從佛教素食傳統到現代素料創新的文化演進",
    "city": "台北"
  },
  {
    "title": "台灣辦桌文化",
    "lat": 22.624174,
    "lng": 120.307783,
    "category": "food",
    "region": "south",
    "link": "/food/%E5%8F%B0%E7%81%A3%E8%BE%A6%E6%A1%8C%E6%96%87%E5%8C%96",
    "lang": "zh-TW",
    "desc": "一個清朝就存在的產業，在台灣最貧瘠的土地上養出全球密度最高的總鋪師。疫情讓訂單蒸發九成，但真正讓行家憂心的，從來不是失業——是失傳。",
    "city": "高雄"
  },
  {
    "title": "台灣鹽酥雞",
    "lat": 25.035319,
    "lng": 121.515272,
    "category": "food",
    "region": "north",
    "link": "/food/%E5%8F%B0%E7%81%A3%E9%B9%BD%E9%85%A5%E9%9B%9E",
    "lang": "zh-TW",
    "desc": "1975 年，一個餐廳經營失敗的台南人陳廷智在西門町擺起推車，用祖傳醃料炸雞塊。五十年後，鹽酥雞成了台灣少數不需要夜市、不需要店面、只靠一台推車和一鍋油就能存活的小吃——CNN 兩度將它列入台灣必吃清單，但它最正宗的吃法，永遠是半夜在路邊等那個紙袋。",
    "city": "台北"
  },
  {
    "title": "名間埔中茶：撐起台灣手搖飲八成江山的「無名英雄」",
    "lat": 23.749,
    "lng": 120.688,
    "category": "food",
    "region": "central",
    "link": "/food/%E5%90%8D%E9%96%93%E5%9F%94%E4%B8%AD%E8%8C%B6",
    "lang": "zh-TW",
    "desc": "2025 年名間焚化爐爭議，意外揭露台灣手搖飲 80% 基底茶源自南投名間。從清代「三埔中」美譽到 1975 年更名「松柏長青茶」，這座海拔僅 400 公尺的淺山，正因焚化爐選址陷入一場守護茶鄉生存權的激戰。",
    "city": "南投"
  },
  {
    "title": "嘉義火雞肉飯：一碗三十元的城市身分證",
    "lat": 23.484516,
    "lng": 120.443687,
    "category": "food",
    "region": "south",
    "link": "/food/%E5%98%89%E7%BE%A9%E7%81%AB%E9%9B%9E%E8%82%89%E9%A3%AF",
    "lang": "zh-TW",
    "desc": "二戰後美軍把火雞帶進嘉義，一個叫林添壽的師傅把火雞肉切絲淋上滷汁蓋在白飯上。七十年後，這碗三十元的飯成了農糧署票選台灣十大招牌飯第一名。嘉義人可以為了「哪家最好吃」吵一整個過年，但有一件事他們不吵：火雞肉飯就是嘉義的。",
    "city": "嘉義"
  },
  {
    "title": "夜市文化",
    "lat": 25.084224,
    "lng": 121.526091,
    "category": "food",
    "region": "north",
    "link": "/food/%E5%A4%9C%E5%B8%82%E6%96%87%E5%8C%96",
    "lang": "zh-TW",
    "desc": "164個列管夜市、台南平均3.8萬人擁有一個夜市，從廟埕到國際觀光景點",
    "city": "台北"
  },
  {
    "title": "太陽餅：從戒嚴時期的「向日葵」禁忌，到台中自由路的百家爭鳴",
    "lat": 24.146188,
    "lng": 120.674528,
    "category": "food",
    "region": "central",
    "link": "/food/%E5%A4%AA%E9%99%BD%E9%A4%85",
    "lang": "zh-TW",
    "desc": "1964年，台中自由路「太陽堂」餅店開幕，藝術家顏水龍創作的向日葵馬賽克壁畫竟因政治禁忌被封印25年。這塊起源於清末麥芽酥餅、由魏清海改良的圓形糕點，如何從鐵路便當的配角，變成台中最具代表性的文化符號？",
    "city": "台中"
  },
  {
    "title": "客家飲食文化",
    "lat": 24.798826,
    "lng": 120.973451,
    "category": "food",
    "region": "north",
    "link": "/food/%E5%AE%A2%E5%AE%B6%E9%A3%B2%E9%A3%9F%E6%96%87%E5%8C%96",
    "lang": "zh-TW",
    "desc": "客家人豐富多元的飲食文化，從擂茶的醇厚香味到野薑花粽的山林風情，展現客家族群勤儉持家與就地取材的生活智慧",
    "city": "新竹"
  },
  {
    "title": "油飯：從「炫富」的糯米到承載生命重量的彌月禮",
    "lat": 24.798823,
    "lng": 120.974731,
    "category": "food",
    "region": "north",
    "link": "/food/%E6%B2%B9%E9%A3%AF",
    "lang": "zh-TW",
    "desc": "2026 年的台灣街頭，一碗油飯仍是許多人慶祝新生的首選。這份源自漢人移民傳統、在台灣演化出鹹甜交織「老饕比例」的料理，把糯米與紅蔥頭組合成台灣家庭在生命轉折點上最厚實的祝福。",
    "city": "新竹"
  },
  {
    "title": "營養午餐：從脫脂奶粉到螢光咖哩，台灣學童餐桌上的百年變革",
    "lat": 25.026489,
    "lng": 121.562668,
    "category": "food",
    "region": "north",
    "link": "/food/%E7%87%9F%E9%A4%8A%E5%8D%88%E9%A4%90",
    "lang": "zh-TW",
    "desc": "1951年，聯合國脫脂奶粉開啟台灣營養午餐序幕。從美援麵粉到在地米食，再到今日食育與免費政策，這段百年變革不僅餵飽學子，更映照社會經濟、教育理念與飲食文化深刻進程。",
    "city": "台北"
  },
  {
    "title": "牛肉麵",
    "lat": 25.039183,
    "lng": 121.558627,
    "category": "food",
    "region": "north",
    "link": "/food/%E7%89%9B%E8%82%89%E9%BA%B5",
    "lang": "zh-TW",
    "desc": "從外省移民鄉愁到台灣國民美食，牛肉麵的文化融合與全球飄香",
    "city": "台北"
  },
  {
    "title": "珍珠奶茶",
    "lat": 24.153836,
    "lng": 120.667414,
    "category": "food",
    "region": "central",
    "link": "/food/%E7%8F%8D%E7%8F%A0%E5%A5%B6%E8%8C%B6",
    "lang": "zh-TW",
    "desc": "1987 年台中的一次員工會議，一個不經意的動作，讓一杯飲料征服了全球。珍珠奶茶的起源爭議、文化政治、與一杯 500 大卡的健康辯論。",
    "city": "台中"
  },
  {
    "title": "竹筒飯：在火堆中與燃點博弈的獵人便當",
    "lat": 24.803227,
    "lng": 120.962162,
    "category": "food",
    "region": "north",
    "link": "/food/%E7%AB%B9%E7%AD%92%E9%A3%AF",
    "lang": "zh-TW",
    "desc": "竹筒飯並非單純的「容器料理」，而是一場精確的「水火博弈」。利用水在 100°C 沸騰的物理特性，讓易燃的竹管在火堆中支撐兩小時而不化為灰燼，這項源自狩獵文化的智慧，如今成為台灣原民食藝的代表。",
    "city": "新竹"
  },
  {
    "title": "粽子",
    "lat": 23.004403,
    "lng": 120.220952,
    "category": "food",
    "region": "south",
    "link": "/food/%E7%B2%BD%E5%AD%90",
    "lang": "zh-TW",
    "desc": "台灣粽子不是一種食物，是四種不同的島嶼記憶疊在一起：閩南、客家、外省、原住民，每一口咬下去的，都是來時路。",
    "city": "台南"
  },
  {
    "title": "糖蔥：藏在白色孔洞裡的「抗爭之糖」",
    "lat": 24.752,
    "lng": 121.753,
    "category": "food",
    "region": "north",
    "link": "/food/%E7%B3%96%E8%94%A5",
    "lang": "zh-TW",
    "desc": "1940年代，台灣農民為了躲避日本警察對蔗糖的壟斷，把深褐色的糖漿拉成雪白如蔥的管狀——農民的「偽裝術」，百年草根智慧的結晶。每一塊糖蔥裡精密的16個大孔與16個小孔，撐起了台灣長達一世紀的甜脆抗爭。",
    "city": "宜蘭"
  },
  {
    "title": "肉圓：從水災救命仙丹到三指痕的生存工藝",
    "lat": 24.080226,
    "lng": 120.546384,
    "category": "food",
    "region": "central",
    "link": "/food/%E8%82%89%E5%9C%93",
    "lang": "zh-TW",
    "desc": "1898 年一場毀滅性的戊戌大水災，竟催生了台灣國民小吃「肉圓」。從北斗神壇文筆生范萬居手下的救命粉丸，到南蒸北炸的味覺邊界，這不只是一場美味的演化，更是台灣人在匱乏中求生的韌性記憶。",
    "city": "彰化"
  },
  {
    "title": "臭豆腐：在逐臭與尋香之間，台灣人的感官極限運動",
    "lat": 23.992,
    "lng": 121.602,
    "category": "food",
    "region": "east",
    "link": "/food/%E8%87%AD%E8%B1%86%E8%85%90",
    "lang": "zh-TW",
    "desc": "從 1950 年代的街頭老兵手藝到登入國宴的「臭豆腐神殿」，這塊發酵豆腐承載了台灣半世紀的韌性。本文解析臭滷水背後的活菌策展，以及深坑焦香與玉里三道油溫的風味秘密。",
    "city": "花蓮"
  },
  {
    "title": "車輪餅：從日治「今川燒」到萬丹紅豆的台灣認同弧線",
    "lat": 22.679105,
    "lng": 120.490641,
    "category": "food",
    "region": "south",
    "link": "/food/%E8%BB%8A%E8%BC%AA%E9%A4%85",
    "lang": "zh-TW",
    "desc": "2026年一場「紅豆餅之亂」引爆語言認同爭議。這款源自江戶時代、日治時期傳入的昂貴點心，如何在1960年代屏東萬丹紅豆試種成功後，從「今川燒」演變成台灣街頭最親民的銅板記憶。",
    "city": "屏東"
  },
  {
    "title": "阿婆鐵蛋：從渡船頭「海腳大飯店」的一場意外，到淡水最硬的集體記憶",
    "lat": 25.17,
    "lng": 121.44,
    "category": "food",
    "region": "north",
    "link": "/food/%E9%98%BF%E5%A9%86%E9%90%B5%E8%9B%8B",
    "lang": "zh-TW",
    "desc": "1983年，一則《民生報》報導讓淡水「海腳大飯店」的黑滷蛋一夜成名。這顆因海風反覆吹乾、越滷越硬的「意外」美食，不僅見證了淡水渡船頭的興衰，更在商標爭議中留下了關於創始人阿哖婆與楊碧雲的歷史公案。",
    "city": "新北"
  },
  {
    "title": "鳳梨酥：從選舉招待點心到年產值 250 億的台灣「金磚」",
    "lat": 25.034465,
    "lng": 121.559997,
    "category": "food",
    "region": "north",
    "link": "/food/%E9%B3%B3%E6%A2%A8%E9%85%A5",
    "lang": "zh-TW",
    "desc": "1945 年，台中顏新發餅舖將傳統龍鳳餅改良為小巧鳳梨酥。從 1970 年代外銷萎縮下的冬瓜餡轉型，到 2009 年微熱山丘重拾土鳳梨的酸甜本色，這塊小小的「金磚」八十年裡始終跟台灣農業命運交織，如今年產值已突破 250 億新台幣，成為外籍旅客心中最具代表性的台灣味。",
    "city": "台北"
  },
  {
    "title": "麻芛湯：從南屯黃麻田到台中夏日餐桌的一碗苦甘綠湯",
    "lat": 24.151816,
    "lng": 120.669134,
    "category": "food",
    "region": "central",
    "link": "/food/%E9%BA%BB%E8%8A%9B%E6%B9%AF",
    "lang": "zh-TW",
    "desc": "1895 年日本人為製麻布袋在台中南屯廣種黃麻，半世紀後塑膠袋淘汰了麻繩產業，卻把麻芛湯留在了台中人的夏天。一碗苦中回甘的綠濃湯，是台灣唯一以「副產品」殘存下來的地方料理。",
    "city": "台中"
  },
  {
    "title": "北大特區：三十年都市計畫與大學城生活實驗",
    "lat": 25.026759,
    "lng": 121.565759,
    "category": "geography",
    "region": "north",
    "link": "/geography/%E5%8C%97%E5%A4%A7%E7%89%B9%E5%8D%80",
    "lang": "zh-TW",
    "desc": "從 1895 年的隆恩埔古戰場到 2026 年的捷運大學城，這是一部關於土地、美學與選擇性認同的深度百科全書。",
    "city": "台北"
  },
  {
    "title": "台北 101：從「看門狗」到「金色的蛇」，一座地標的政經與風水豪賭",
    "lat": 25.036713,
    "lng": 121.564998,
    "category": "geography",
    "region": "north",
    "link": "/geography/%E5%8F%B0%E5%8C%97101",
    "lang": "zh-TW",
    "desc": "台北 101 不只是一棟大樓，它是陳水扁與彭淮南的政經博弈、李祖原的風水實驗，更是 Alex Honnold 腳下的「大魔王」。從 59 層到 101 層的演變，揭開這座「聚寶盆」背後的權力與神祕。",
    "city": "台北"
  },
  {
    "title": "台灣五大地形與地理結構：從山脈到平原的島嶼風貌",
    "lat": 23.468174,
    "lng": 120.962142,
    "category": "geography",
    "region": "central",
    "link": "/geography/%E5%8F%B0%E7%81%A3%E4%BA%94%E5%A4%A7%E5%9C%B0%E5%BD%A2%E8%88%87%E5%9C%B0%E7%90%86%E7%B5%90%E6%A7%8B",
    "lang": "zh-TW",
    "desc": "探索台灣獨特的地理結構，從中央山脈到西部平原，認識這座島嶼的地形多樣性",
    "city": "南投"
  },
  {
    "title": "台灣國家風景區系統",
    "lat": 23.863,
    "lng": 120.917,
    "category": "geography",
    "region": "central",
    "link": "/geography/%E5%8F%B0%E7%81%A3%E5%9C%8B%E5%AE%B6%E9%A2%A8%E6%99%AF%E5%8D%80%E7%B3%BB%E7%B5%B1",
    "lang": "zh-TW",
    "desc": "一個「國家級」標籤下的觀光優先實驗：13處風景區如何在保育與開發間走鋼索",
    "city": "南投"
  },
  {
    "title": "台灣地圖怎麼讀：從番薯到衛星的四百年",
    "lat": 24.449,
    "lng": 118.377,
    "category": "geography",
    "region": "islands",
    "link": "/geography/%E5%8F%B0%E7%81%A3%E5%9C%B0%E5%9C%96%E6%80%8E%E9%BA%BC%E8%AE%80",
    "lang": "zh-TW",
    "desc": "1554 年，一個葡萄牙製圖師在八張羊皮上畫出了一座叫「I. Fremosa」的模糊島嶼。他從沒踏上過這座島。四百七十年後，Google Maps 顯示的台灣長什麼樣，取決於你人在哪個國家——這不是技術問題，是政治。",
    "city": "金門"
  },
  {
    "title": "台灣島嶼地理特色與形成",
    "lat": 23.515031,
    "lng": 120.692127,
    "category": "geography",
    "region": "south",
    "link": "/geography/%E5%8F%B0%E7%81%A3%E5%B3%B6%E5%B6%BC%E5%9C%B0%E7%90%86%E7%89%B9%E8%89%B2%E8%88%87%E5%BD%A2%E6%88%90",
    "lang": "zh-TW",
    "desc": "探索台灣獨特的島嶼地理特色，從板塊運動到地形結構，了解福爾摩沙島的自然奧秘",
    "city": "嘉義"
  },
  {
    "title": "台灣板塊運動與地震活動",
    "lat": 25.031983,
    "lng": 121.568583,
    "category": "geography",
    "region": "north",
    "link": "/geography/%E5%8F%B0%E7%81%A3%E6%9D%BF%E5%A1%8A%E9%81%8B%E5%8B%95%E8%88%87%E5%9C%B0%E9%9C%87%E6%B4%BB%E5%8B%95",
    "lang": "zh-TW",
    "desc": "探討台灣位於歐亞板塊與菲律賓海板塊交界的地質特性，以及造成頻繁地震活動的原因",
    "city": "台北"
  },
  {
    "title": "台灣水庫與水資源管理",
    "lat": 25.040895,
    "lng": 121.558,
    "category": "geography",
    "region": "north",
    "link": "/geography/%E5%8F%B0%E7%81%A3%E6%B0%B4%E5%BA%AB%E8%88%87%E6%B0%B4%E8%B3%87%E6%BA%90%E7%AE%A1%E7%90%86",
    "lang": "zh-TW",
    "desc": "從缺水危機到水庫淤積，台灣水資源的挑戰與南北分配不均的困境",
    "city": "台北"
  },
  {
    "title": "台灣河川系統與水文特色：短急流與季節變遷的水文地理",
    "lat": 25.162341,
    "lng": 121.435916,
    "category": "geography",
    "region": "north",
    "link": "/geography/%E5%8F%B0%E7%81%A3%E6%B2%B3%E5%B7%9D%E7%B3%BB%E7%B5%B1%E8%88%87%E6%B0%B4%E6%96%87%E7%89%B9%E8%89%B2",
    "lang": "zh-TW",
    "desc": "探索台灣獨特的河川系統，從濁水溪到高屏溪，了解島嶼地形如何塑造台灣的水文特色",
    "city": "新北"
  },
  {
    "title": "台灣海岸地形與海洋地景",
    "lat": 23.470928,
    "lng": 120.958132,
    "category": "geography",
    "region": "central",
    "link": "/geography/%E5%8F%B0%E7%81%A3%E6%B5%B7%E5%B2%B8%E5%9C%B0%E5%BD%A2%E8%88%87%E6%B5%B7%E6%B4%8B%E5%9C%B0%E6%99%AF",
    "lang": "zh-TW",
    "desc": "在地球上，很少有地方能讓你從近4,000公尺的山頂出發，不到150公里就墜入7,500公尺深的海溝。台灣可以。這座島嶼的海岸線，是一場仍在進行的車禍現場——美到令人窒息。",
    "city": "南投"
  },
  {
    "title": "台灣溫泉地景",
    "lat": 22.695,
    "lng": 121.032,
    "category": "geography",
    "region": "east",
    "link": "/geography/%E5%8F%B0%E7%81%A3%E6%BA%AB%E6%B3%89%E5%9C%B0%E6%99%AF",
    "lang": "zh-TW",
    "desc": "從『女巫湯』到全球前15溫泉王國，板塊碰撞如何煮出這座島的療癒密碼",
    "city": "台東"
  },
  {
    "title": "台灣生態多樣性熱點",
    "lat": 23.472694,
    "lng": 120.953337,
    "category": "geography",
    "region": "central",
    "link": "/geography/%E5%8F%B0%E7%81%A3%E7%94%9F%E6%85%8B%E5%A4%9A%E6%A8%A3%E6%80%A7%E7%86%B1%E9%BB%9E",
    "lang": "zh-TW",
    "desc": "3.6 萬平方公里島嶼擠下 5.9 萬種生物，密度是全球平均值的 100 倍",
    "city": "南投"
  },
  {
    "title": "台灣行政區劃：從「地方會議」到「五都」的權力拼圖",
    "lat": 23.485583,
    "lng": 120.454259,
    "category": "geography",
    "region": "south",
    "link": "/geography/%E5%8F%B0%E7%81%A3%E8%A1%8C%E6%94%BF%E5%8D%80%E5%8A%83",
    "lang": "zh-TW",
    "desc": "台灣行政區劃不只是地圖上的線條，更是一場跨越四百年的權力實驗。從荷西時期的部落議會，到日治時期的「五州三廳」雅化運動，再到戰後差點出現的「爽文市」，每一道邊界背後都藏著統治意志與地方認同的拉扯。",
    "city": "嘉義"
  },
  {
    "title": "台灣農業地景與產業分布",
    "lat": 24.08447,
    "lng": 120.533606,
    "category": "geography",
    "region": "central",
    "link": "/geography/%E5%8F%B0%E7%81%A3%E8%BE%B2%E6%A5%AD%E5%9C%B0%E6%99%AF%E8%88%87%E7%94%A2%E6%A5%AD%E5%88%86%E5%B8%83",
    "lang": "zh-TW",
    "desc": "從北到南的農業地景變化，彰顯台灣從「台灣穀倉」到「精緻農業」的轉型之路",
    "city": "彰化"
  },
  {
    "title": "台灣都市發展與城鄉差距",
    "lat": 25.033607,
    "lng": 121.572654,
    "category": "geography",
    "region": "north",
    "link": "/geography/%E5%8F%B0%E7%81%A3%E9%83%BD%E5%B8%82%E7%99%BC%E5%B1%95%E8%88%87%E5%9F%8E%E9%84%89%E5%B7%AE%E8%B7%9D",
    "lang": "zh-TW",
    "desc": "70年從農業島變都市島，六都集中7成人口的光與影：繁榮台中vs凋零雲林的殘酷對比",
    "city": "台北"
  },
  {
    "title": "地形與地質",
    "lat": 23.470751,
    "lng": 120.962971,
    "category": "geography",
    "region": "central",
    "link": "/geography/%E5%9C%B0%E5%BD%A2%E8%88%87%E5%9C%B0%E8%B3%AA",
    "lang": "zh-TW",
    "desc": "600萬年的島嶼，藏著2億年的古老記憶 — 全球最年輕造山帶與最劇烈板塊碰撞的奇蹟",
    "city": "南投"
  },
  {
    "title": "城市特色與區域文化",
    "lat": 25.034553,
    "lng": 121.572425,
    "category": "geography",
    "region": "north",
    "link": "/geography/%E5%9F%8E%E5%B8%82%E7%89%B9%E8%89%B2%E8%88%87%E5%8D%80%E5%9F%9F%E6%96%87%E5%8C%96",
    "lang": "zh-TW",
    "desc": "從台北的國際都會到台南的古都風情，台灣各城市如何形塑獨特的地方認同",
    "city": "台北"
  },
  {
    "title": "日月潭：在 18.18 公尺水位之下，被淹沒與被看見的台灣之心",
    "lat": 23.862618,
    "lng": 120.923562,
    "category": "geography",
    "region": "central",
    "link": "/geography/%E6%97%A5%E6%9C%88%E6%BD%AD",
    "lang": "zh-TW",
    "desc": "2026 年的日月潭，是全球最大的抽蓄發電電池，也是邵族人失落的祖靈地。從 1934 年水位上升 18.18 公尺改變地貌開始，這座湖泊在觀光勝地與能源心臟之間，承載了百年來的族群遷徙與電力奇蹟。",
    "city": "南投"
  },
  {
    "title": "林口新市鎮：從「鬼城」到北台灣新興都會的蛻變與挑戰",
    "lat": 25.031067,
    "lng": 121.562778,
    "category": "geography",
    "region": "north",
    "link": "/geography/%E6%9E%97%E5%8F%A3%E6%96%B0%E5%B8%82%E9%8E%AE",
    "lang": "zh-TW",
    "desc": "1970年代，台灣政府為緩解台北人口壓力，在林口台地規劃了「田園城市」新市鎮。歷經數十年發展，這個曾因交通不便、機能不足被戲稱為「鬼城」的區域，在2017年機場捷運通車後，人口快速成長，產業升級，成為北台灣最年輕、最具活力的都會區之一。然而，交通壅塞與氣候濕冷等挑戰仍待克服。",
    "city": "台北"
  },
  {
    "title": "台灣氣候",
    "lat": 23.514111,
    "lng": 120.698552,
    "category": "geography",
    "region": "south",
    "link": "/geography/%E6%B0%A3%E5%80%99",
    "lang": "zh-TW",
    "desc": "年降雨量是全球平均2.5倍，卻名列全球前20缺水國——台灣的氣候從來不是你想的那樣",
    "city": "嘉義"
  },
  {
    "title": "清水斷崖：板塊碰撞下的絕美傷痕與生命韌性",
    "lat": 24.158,
    "lng": 121.621,
    "category": "geography",
    "region": "east",
    "link": "/geography/%E6%B8%85%E6%B0%B4%E6%96%B7%E5%B4%96",
    "lang": "zh-TW",
    "desc": "1874年，清朝羅大春率軍開鑿蘇花古道，開啟了這段東海岸的險峻之路。清水斷崖，這座由大理岩與片麻岩構成的垂直峭壁，不僅是台灣東部地質演化的縮影，更是特有植物與海洋文學的靈感泉源，同時也面臨著環境與安全的雙重挑戰。",
    "city": "花蓮"
  },
  {
    "title": "玉山：從「新高山」到台灣靈魂的最高點",
    "lat": 23.473761,
    "lng": 120.957975,
    "category": "geography",
    "region": "central",
    "link": "/geography/%E7%8E%89%E5%B1%B1",
    "lang": "zh-TW",
    "desc": "1897年，日本拓殖者將它命名為「新高山」，象徵帝國超越富士山的高度野心。百年後的玉山，仍是台灣最高峰——從原住民族的聖山、清代文獻的記載、殖民地圖上的皇冠，到今日爭議中的登山聖地與環境倫理的試煉場。",
    "city": "南投"
  },
  {
    "title": "野柳：在魔鬼岬角上，一場與時間賽跑的「女王」加冕與謝幕",
    "lat": 25.206,
    "lng": 121.691,
    "category": "geography",
    "region": "north",
    "link": "/geography/%E9%87%8E%E6%9F%B3",
    "lang": "zh-TW",
    "desc": "1962 年一次岩石斷裂意外讓野柳女王頭「加冕」，但這座世界級地景正以每年 2 公分的速度消逝。從西班牙人眼中的「魔鬼岬角」到全民守護的文化地標，野柳的故事不只是地質奇觀，更是台灣人如何在自然律法與情感留戀之間，學會放手的過程。",
    "city": "新北"
  },
  {
    "title": "金瓜石：那一千個被押進坑道挖銅的英國兵，與一座還沒洗乾淨的金山",
    "lat": 25.01755,
    "lng": 121.465841,
    "category": "geography",
    "region": "north",
    "link": "/geography/%E9%87%91%E7%93%9C%E7%9F%B3",
    "lang": "zh-TW",
    "desc": "1942 年到 1945 年，超過一千名英國協戰俘被關在金瓜石「凸鼻仔寮」挖銅；1997 年 11 月 23 日，倖存者回到原址親手立下紀念碑。這座以金礦聞名的山城，最該被記得的不是黃金，而是那條至今土壤仍超標的廢煙道。",
    "city": "新北"
  },
  {
    "title": "離島與海洋文化：從石滬密度世界第一到飛魚季生態法律",
    "lat": 23.569551,
    "lng": 119.574071,
    "category": "geography",
    "region": "islands",
    "link": "/geography/%E9%9B%A2%E5%B3%B6%E8%88%87%E6%B5%B7%E6%B4%8B%E6%96%87%E5%8C%96",
    "lang": "zh-TW",
    "desc": "全世界石滬不到600座，澎湖就有574座。一個專門抓飛魚的島嶼民族，把禁忌變成了最精密的海洋資源管理系統",
    "city": "澎湖"
  },
  {
    "title": "19 世紀的樟腦戰爭：世界要的香氣，藏在原住民的山",
    "lat": 23.001719,
    "lng": 120.159798,
    "category": "history",
    "region": "south",
    "link": "/history/19%E4%B8%96%E7%B4%80%E7%9A%84%E6%A8%9F%E8%85%A6%E6%88%B0%E7%88%AD",
    "lang": "zh-TW",
    "desc": "1864 年史溫侯在淡水寫下三個數字：6、16、28。一擔樟腦從原產地走到香港，價格翻了將近五倍。中間的差價，是道台的口袋——和原住民的山。",
    "city": "台南"
  },
  {
    "title": "三個外國人看乙未：攝影師的相冊、記者的筆記、牧師的日記",
    "lat": 23.006403,
    "lng": 120.233763,
    "category": "history",
    "region": "south",
    "link": "/history/%E4%B8%89%E5%80%8B%E5%A4%96%E5%9C%8B%E4%BA%BA%E7%9C%8B%E4%B9%99%E6%9C%AA",
    "lang": "zh-TW",
    "desc": "1895年乙未之役，三個外國人留下了這場戰爭最重要的外語目擊文獻——日本攝影師遠藤誠的勝利相冊、美國記者達飛聲的隨軍筆記、日本牧師細川瀏的渡台日記。問題不是他們看到了什麼，而是他們為誰而看。",
    "city": "台南"
  },
  {
    "title": "中正紀念堂",
    "lat": 25.033956,
    "lng": 121.520617,
    "category": "history",
    "region": "north",
    "link": "/history/%E4%B8%AD%E6%AD%A3%E7%B4%80%E5%BF%B5%E5%A0%82",
    "lang": "zh-TW",
    "desc": "它是台北市中心最巨大的政治圖騰，也是最民主的練舞場。從威權的聖殿到轉型正義的暴風眼，這座建築紀錄了台灣靈魂最劇烈的震盪。",
    "city": "台北"
  },
  {
    "title": "乙未之役：臺灣民主國的 148 天",
    "lat": 25.030184,
    "lng": 121.561344,
    "category": "history",
    "region": "north",
    "link": "/history/%E4%B9%99%E6%9C%AA%E4%B9%8B%E5%BD%B9",
    "lang": "zh-TW",
    "desc": "1895年，清廷把台灣割給日本。島上的官員宣布建立亞洲第一個共和國，但總統十天就跑了，詩人四天就走了。真正留下來打仗的，是一個19歲的客家少年和他散盡家產召來的民兵。148天後，民主國消失了，日本統治開始了。",
    "city": "台北"
  },
  {
    "title": "二二八事件",
    "lat": 22.995786,
    "lng": 120.230161,
    "category": "history",
    "region": "south",
    "link": "/history/%E4%BA%8C%E4%BA%8C%E5%85%AB%E4%BA%8B%E4%BB%B6",
    "lang": "zh-TW",
    "desc": "一個寡婦的私菸攤，如何點燃一座島嶼三十八年的沉默——1947年改變台灣命運的十天，以及七十八年後仍在癒合的傷",
    "city": "台南"
  },
  {
    "title": "台海危機與兩岸關係發展",
    "lat": 24.448108,
    "lng": 118.373557,
    "category": "history",
    "region": "islands",
    "link": "/history/%E5%8F%B0%E6%B5%B7%E5%8D%B1%E6%A9%9F%E8%88%87%E5%85%A9%E5%B2%B8%E9%97%9C%E4%BF%82%E7%99%BC%E5%B1%95",
    "lang": "zh-TW",
    "desc": "從金門阿嬤的砲彈記憶到台北年輕人的佛系日常，七十年台海危機如何塑造了台灣人的集體心理",
    "city": "金門"
  },
  {
    "title": "台灣原住民族歷史與正名運動",
    "lat": 23.510048,
    "lng": 120.701994,
    "category": "history",
    "region": "south",
    "link": "/history/%E5%8F%B0%E7%81%A3%E5%8E%9F%E4%BD%8F%E6%B0%91%E6%97%8F%E6%AD%B7%E5%8F%B2%E8%88%87%E6%AD%A3%E5%90%8D%E9%81%8B%E5%8B%95",
    "lang": "zh-TW",
    "desc": "1987年，一個19歲的鄒族青年在台北刑場被槍決。他的死，點燃了正名運動最初的火。",
    "city": "嘉義"
  },
  {
    "title": "台灣森林開發史：從資源榨取到國土保安的世紀轉向",
    "lat": 23.510127,
    "lng": 120.695032,
    "category": "history",
    "region": "south",
    "link": "/history/%E5%8F%B0%E7%81%A3%E6%A3%AE%E6%9E%97%E9%96%8B%E7%99%BC%E5%8F%B2",
    "lang": "zh-TW",
    "desc": "從清領時期的樟腦煙雲，到日治時期的鋼軌鳴響，再到戰後震撼山壑的大伐木時代。本文梳理台灣森林開發政策背後的全球地緣政治邏輯，並以資料釐清百年林業的真實真相。",
    "city": "嘉義"
  },
  {
    "title": "台灣民主轉型——威權自掘的墳墓",
    "lat": 22.624189,
    "lng": 120.295661,
    "category": "history",
    "region": "south",
    "link": "/history/%E5%8F%B0%E7%81%A3%E6%B0%91%E4%B8%BB%E8%BD%89%E5%9E%8B",
    "lang": "zh-TW",
    "desc": "每一次鎮壓都製造更多反抗者。從二二八到太陽花，一座島嶼如何讓獨裁體制親手培養出埋葬自己的力量。",
    "city": "高雄"
  },
  {
    "title": "台灣海洋貿易史",
    "lat": 22.988224,
    "lng": 120.168273,
    "category": "history",
    "region": "south",
    "link": "/history/%E5%8F%B0%E7%81%A3%E6%B5%B7%E6%B4%8B%E8%B2%BF%E6%98%93%E5%8F%B2",
    "lang": "zh-TW",
    "desc": "大航海時代的台灣，從國際貿易中心到海盜王國的興衰傳奇",
    "city": "台南"
  },
  {
    "title": "台灣白色恐怖",
    "lat": 22.667719,
    "lng": 121.504257,
    "category": "history",
    "region": "east",
    "link": "/history/%E5%8F%B0%E7%81%A3%E7%99%BD%E8%89%B2%E6%81%90%E6%80%96",
    "lang": "zh-TW",
    "desc": "38 年戒嚴不是靠幾千個特務維持的，是靠全台灣兩百萬個家庭必須互相擔保才能上班、入學、結婚的「連坐保證」制度維持的。陳智雄、施水環、高一生、柏楊——四個名字，四種被抓的理由，一個共同的機器。",
    "city": "台東"
  },
  {
    "title": "台灣眷村歷史",
    "lat": 25.03071,
    "lng": 121.558129,
    "category": "history",
    "region": "north",
    "link": "/history/%E5%8F%B0%E7%81%A3%E7%9C%B7%E6%9D%91%E6%AD%B7%E5%8F%B2",
    "lang": "zh-TW",
    "desc": "從緬甸孤軍到竹籬笆王國，120萬大遷徙如何重新定義「家」",
    "city": "台北"
  },
  {
    "title": "台灣轉型正義",
    "lat": 22.662537,
    "lng": 121.504297,
    "category": "history",
    "region": "east",
    "link": "/history/%E5%8F%B0%E7%81%A3%E8%BD%89%E5%9E%8B%E6%AD%A3%E7%BE%A9",
    "lang": "zh-TW",
    "desc": "台灣撤銷了近六千份威權時期的有罪判決，卻幾乎沒有一個加害者被追究責任——這個落差，比白色恐怖本身更難解釋。",
    "city": "台東"
  },
  {
    "title": "台灣選舉與政黨政治",
    "lat": 25.033947,
    "lng": 121.569622,
    "category": "history",
    "region": "north",
    "link": "/history/%E5%8F%B0%E7%81%A3%E9%81%B8%E8%88%89%E8%88%87%E6%94%BF%E9%BB%A8%E6%94%BF%E6%B2%BB",
    "lang": "zh-TW",
    "desc": "從中壢事件的火光到817萬張選票，台灣如何用半個世紀把投票從戒嚴工具變成全民信仰",
    "city": "台北"
  },
  {
    "title": "台灣鐵道史",
    "lat": 24.153951,
    "lng": 120.668425,
    "category": "history",
    "region": "central",
    "link": "/history/%E5%8F%B0%E7%81%A3%E9%90%B5%E9%81%93%E5%8F%B2",
    "lang": "zh-TW",
    "desc": "一條被日本人罵是「肺病鐵道」的爛路，如何在一百多年間變成每天載運二十萬人的高速動脈",
    "city": "台中"
  },
  {
    "title": "心戰：從金門播音牆到 AI 認知作戰的範式轉移",
    "lat": 24.442983,
    "lng": 118.373419,
    "category": "history",
    "region": "islands",
    "link": "/history/%E5%BF%83%E6%88%B0",
    "lang": "zh-TW",
    "desc": "從 1960 年代金門播音牆的鄧麗君喊話、空飄「投誠食品」，到 2026 年數位時代的資訊穿透與 AI 認知操弄，兩岸心戰已從物理物資誘利演變為數位語意攻防。本文詳盡梳理台灣對中歷史心戰脈絡、具體物資清單，並對比當前 AI 工業化階段的挑戰。",
    "city": "金門"
  },
  {
    "title": "日治時期",
    "lat": 22.622461,
    "lng": 120.295498,
    "category": "history",
    "region": "south",
    "link": "/history/%E6%97%A5%E6%B2%BB%E6%99%82%E6%9C%9F",
    "lang": "zh-TW",
    "desc": "1895-1945年日本統治台灣50年，帶來全面現代化建設與制度化管理，同時實施同化政策，深刻影響台灣社會發展",
    "city": "高雄"
  },
  {
    "title": "日治時期臺灣社會運動",
    "lat": 25.058609,
    "lng": 121.516569,
    "category": "history",
    "region": "north",
    "link": "/history/%E6%97%A5%E6%B2%BB%E6%99%82%E6%9C%9F%E8%87%BA%E7%81%A3%E7%A4%BE%E6%9C%83%E9%81%8B%E5%8B%95",
    "lang": "zh-TW",
    "desc": "帝國警察的監控文件裡，藏著一張台灣人如何反抗的地圖。1920年代，議會請願、農民組合、地下黨，三條路線同時燃起，卻燒向彼此",
    "city": "台北"
  },
  {
    "title": "民主化",
    "lat": 22.627834,
    "lng": 120.308853,
    "category": "history",
    "region": "south",
    "link": "/history/%E6%B0%91%E4%B8%BB%E5%8C%96",
    "lang": "zh-TW",
    "desc": "1980年3月18日，高雄軍事法庭上，施明德放棄了六萬字答辯書，改口要求法官判他死刑。同一場審判中，替被告辯護的年輕律師陳水扁、謝長廷、蘇貞昌，二十年後全部當上了總統或行政院長。一場本該殺雞儆猴的審判，意外製造了台灣下一個世代的政治領袖。",
    "city": "高雄"
  },
  {
    "title": "淡江中學：一座校園，如何濃縮台灣近代教育史",
    "lat": 25.168504,
    "lng": 121.441331,
    "category": "history",
    "region": "north",
    "link": "/history/%E6%B7%A1%E6%B1%9F%E4%B8%AD%E5%AD%B8",
    "lang": "zh-TW",
    "desc": "淡江中學最值得寫的，不是它夠老，而是它把宣教、女子教育與殖民體制的拉扯，都留在同一座校園裡。",
    "city": "新北"
  },
  {
    "title": "清治時期",
    "lat": 25.16421,
    "lng": 121.443675,
    "category": "history",
    "region": "north",
    "link": "/history/%E6%B8%85%E6%B2%BB%E6%99%82%E6%9C%9F",
    "lang": "zh-TW",
    "desc": "1683-1895年清朝統治台灣約212年，從消極治理到積極建設，奠定現代台灣行政區劃與漢人社會基礎",
    "city": "新北"
  },
  {
    "title": "清法戰爭：基隆與淡水的八個月",
    "lat": 25.166911,
    "lng": 121.445278,
    "category": "history",
    "region": "north",
    "link": "/history/%E6%B8%85%E6%B3%95%E6%88%B0%E7%88%AD",
    "lang": "zh-TW",
    "desc": "1884年秋天，法國艦隊砲轟基隆港，兩千名海軍陸戰隊登陸，佔領了港口。但他們花了七個月，始終走不出基隆的山嶺。同一週，600名法軍水兵在淡水登陸，兩小時內被趕回海上。戰爭結束時，法國拿到了越南，放棄了台灣。清廷差點輸掉，卻因此讓台灣從附屬變成一個省。",
    "city": "新北"
  },
  {
    "title": "擎天崗的19頭牛：從源興牛到台南牛肉湯，一座島嶼的肉牛突圍",
    "lat": 23.004368,
    "lng": 120.221636,
    "category": "history",
    "region": "south",
    "link": "/history/%E6%BA%90%E8%88%88%E7%89%9B%E8%88%87%E7%89%9B%E8%82%89%E6%B9%AF%E7%9A%84%E6%AD%B7%E5%8F%B2",
    "lang": "zh-TW",
    "desc": "台灣牛肉自給率僅4.6%，卻在2024年誕生全國第一個民間認證牛品種。源興牛的故事，是一個94歲的老人、19頭野生黑牛、和一碗凌晨的溫體湯共同寫成的產業突圍劇本。",
    "city": "台南"
  },
  {
    "title": "羅發號事件：181人打不下的仗，卓杞篤用45分鐘談完",
    "lat": 22.006,
    "lng": 120.745,
    "category": "history",
    "region": "south",
    "link": "/history/%E7%BE%85%E7%99%BC%E8%99%9F%E4%BA%8B%E4%BB%B6%E8%88%87%E5%8D%93%E6%9D%9E%E7%AF%A4",
    "lang": "zh-TW",
    "desc": "1867年美軍181人在恆春半島叢林中被排灣族擊退，帶隊指揮官陣亡。三個月後，瑯嶠十八社大頭目卓杞篤坐下來，用45分鐘談成了南岬之盟。這份協議讓族人暫時免於滅族，但締約的另一方李仙得，七年後帶著同一份情報跳槽日本帝國，協助策劃了1874年的出兵。",
    "city": "屏東"
  },
  {
    "title": "美麗島事件",
    "lat": 22.634038,
    "lng": 120.297503,
    "category": "history",
    "region": "south",
    "link": "/history/%E7%BE%8E%E9%BA%97%E5%B3%B6%E4%BA%8B%E4%BB%B6",
    "lang": "zh-TW",
    "desc": "一場本應讓反對運動徹底崩潰的軍事審判，因公開轉播意外成為台灣民主最有力的宣傳片。",
    "city": "高雄"
  },
  {
    "title": "荷西明鄭時期",
    "lat": 22.995795,
    "lng": 120.234364,
    "category": "history",
    "region": "south",
    "link": "/history/%E8%8D%B7%E8%A5%BF%E6%98%8E%E9%84%AD%E6%99%82%E6%9C%9F",
    "lang": "zh-TW",
    "desc": "1624 年荷蘭人在臺南建立熱蘭遮城，到 1683 年施琅登陸澎湖為止——臺灣被寫進世界貿易地圖的六十年，和四個政權輪替的故事",
    "city": "台南"
  },
  {
    "title": "阿里山：帝國的林場與高一生的山",
    "lat": 23.512295,
    "lng": 120.701109,
    "category": "history",
    "region": "south",
    "link": "/history/%E9%98%BF%E9%87%8C%E5%B1%B1%EF%BC%9A%E5%B8%9D%E5%9C%8B%E7%9A%84%E6%9E%97%E5%A0%B4%E8%88%87%E9%AB%98%E4%B8%80%E7%94%9F%E7%9A%84%E5%B1%B1",
    "lang": "zh-TW",
    "desc": "1954 年 4 月 17 日，鄒族菁英高一生在安坑刑場被槍決。阿里山這座被稱為觀光勝地的山脈，其實是一座被兩個帝國先後改寫過的記憶之山。",
    "city": "嘉義"
  },
  {
    "title": "台灣 YouBike 文化與城市微交通革命",
    "lat": 25.038028,
    "lng": 121.557286,
    "category": "lifestyle",
    "region": "north",
    "link": "/lifestyle/%E5%8F%B0%E7%81%A3YouBike%E6%96%87%E5%8C%96%E8%88%87%E5%9F%8E%E5%B8%82%E5%BE%AE%E4%BA%A4%E9%80%9A%E9%9D%A9%E5%91%BD",
    "lang": "zh-TW",
    "desc": "從「最後一哩」到日常基礎設施，YouBike 如何用小額費率、密集站點與即時調度，改變台灣城市的移動習慣與時間感。",
    "city": "台北"
  },
  {
    "title": "台灣交通系統：一座島嶼怎麼把自己壓縮成 90 分鐘",
    "lat": 25.031014,
    "lng": 121.562869,
    "category": "lifestyle",
    "region": "north",
    "link": "/lifestyle/%E5%8F%B0%E7%81%A3%E4%BA%A4%E9%80%9A%E7%B3%BB%E7%B5%B1",
    "lang": "zh-TW",
    "desc": "1946 年台灣一夜之間從左駕變右駕。中央山脈縱貫南北 273 公里，把 36,000 平方公里的島切成東西兩半。六十年後高鐵把 394 公里壓成 90 分鐘，雪山隧道把宜蘭從 2 小時車程縮成 40 分鐘。再十年後，一千四百萬輛機車塞滿了每一個路口。這座島嶼的交通故事，就是它的身份故事。",
    "city": "台北"
  },
  {
    "title": "台灣便利商店文化",
    "lat": 25.037943,
    "lng": 121.571169,
    "category": "lifestyle",
    "region": "north",
    "link": "/lifestyle/%E5%8F%B0%E7%81%A3%E4%BE%BF%E5%88%A9%E5%95%86%E5%BA%97%E6%96%87%E5%8C%96",
    "lang": "zh-TW",
    "desc": "密度世界第一的便利商店王國，7-11與全家的在地化創新，重新定義現代生活方式",
    "city": "台北"
  },
  {
    "title": "台灣公園與日常休閒",
    "lat": 25.031028,
    "lng": 121.560193,
    "category": "lifestyle",
    "region": "north",
    "link": "/lifestyle/%E5%8F%B0%E7%81%A3%E5%85%AC%E5%9C%92%E8%88%87%E6%97%A5%E5%B8%B8%E4%BC%91%E9%96%92",
    "lang": "zh-TW",
    "desc": "從清晨太極到夜間散步——台灣公園作為跨世代社交場域的文化觀察",
    "city": "台北"
  },
  {
    "title": "追垃圾車的島：台灣從垃圾危機到回收奇蹟",
    "lat": 25.039088,
    "lng": 121.566532,
    "category": "lifestyle",
    "region": "north",
    "link": "/lifestyle/%E5%8F%B0%E7%81%A3%E5%9B%9E%E6%94%B6%E8%88%87%E8%B3%87%E6%BA%90%E5%BE%AA%E7%92%B0%E6%96%87%E5%8C%96",
    "lang": "zh-TW",
    "desc": "一個1990年代有400座快滿的掩埋場、被國際媒體稱為「垃圾島」的地方，用貝多芬的音樂讓2,300萬人每天追垃圾車，30年後資源回收率超越多數歐洲國家",
    "city": "台北"
  },
  {
    "title": "當古典音樂變成垃圾車廣告歌：台灣最浪漫的環保革命",
    "lat": 25.03624,
    "lng": 121.567462,
    "category": "lifestyle",
    "region": "north",
    "link": "/lifestyle/%E5%8F%B0%E7%81%A3%E5%9E%83%E5%9C%BE%E8%BB%8A%E9%9F%B3%E6%A8%82",
    "lang": "zh-TW",
    "desc": "外國人聽到垃圾車播貝多芬的震驚表情，背後是台灣從「垃圾島」蛻變成環保模範的神奇故事",
    "city": "台北"
  },
  {
    "title": "台灣捷運發展史：一部用血與錢寫成的城市進化論",
    "lat": 25.040906,
    "lng": 121.570145,
    "category": "lifestyle",
    "region": "north",
    "link": "/lifestyle/%E5%8F%B0%E7%81%A3%E6%8D%B7%E9%81%8B%E7%99%BC%E5%B1%95%E5%8F%B2",
    "lang": "zh-TW",
    "desc": "209 噸鋼梁從天而降奪走 4 條人命，16.4 億賠款，台北捷運本業至今仍在虧錢——全台捷運背後的真實代價",
    "city": "台北"
  },
  {
    "title": "台灣教育制度：從聯考地獄到多元迷宮的島嶼實驗",
    "lat": 25.037048,
    "lng": 121.56092,
    "category": "lifestyle",
    "region": "north",
    "link": "/lifestyle/%E5%8F%B0%E7%81%A3%E6%95%99%E8%82%B2%E5%88%B6%E5%BA%A6",
    "lang": "zh-TW",
    "desc": "台灣花30年想破除聯考制度，結果最新的分科測驗讓重考班招生暴增一倍。一個島嶼如何在升學壓力與教育公平之間，反覆進行社會實驗？",
    "city": "台北"
  },
  {
    "title": "台灣機車文化",
    "lat": 25.025278,
    "lng": 121.561143,
    "category": "lifestyle",
    "region": "north",
    "link": "/lifestyle/%E5%8F%B0%E7%81%A3%E6%A9%9F%E8%BB%8A%E6%96%87%E5%8C%96",
    "lang": "zh-TW",
    "desc": "全球機車密度最高的國家不是因為愛騎車——是因為沒有別的選擇。現在它意外成了電動二輪的全球實驗場。",
    "city": "台北"
  },
  {
    "title": "台灣騎樓文化與街景",
    "lat": 25.026988,
    "lng": 121.561482,
    "category": "lifestyle",
    "region": "north",
    "link": "/lifestyle/%E5%8F%B0%E7%81%A3%E9%A8%8E%E6%A8%93%E6%96%87%E5%8C%96%E8%88%87%E8%A1%97%E6%99%AF",
    "lang": "zh-TW",
    "desc": "遮風避雨的生活廊道，機車、攤販與人情味交織的台灣街頭記憶",
    "city": "台北"
  },
  {
    "title": "台灣高鐵：從「零政府出資」到「國有民營」，20 年縮短 90 分鐘的代價",
    "lat": 25.038288,
    "lng": 121.558991,
    "category": "lifestyle",
    "region": "north",
    "link": "/lifestyle/%E5%8F%B0%E7%81%A3%E9%AB%98%E9%90%B5",
    "lang": "zh-TW",
    "desc": "1998 年殷琪簽下這份 BOT，承諾政府零出資。2015 年立法院 18 比 0 否決財改案，葉匡時當晚請辭。十七年間，台灣如何用 5,133 億與一場歐日技術戰爭，把南北距離壓縮到 90 分鐘？",
    "city": "台北"
  },
  {
    "title": "吉祥物：從黑熊迷戀到諧音救贖的文化策展",
    "lat": 22.999633,
    "lng": 120.220445,
    "category": "lifestyle",
    "region": "south",
    "link": "/lifestyle/%E5%90%89%E7%A5%A5%E7%89%A9",
    "lang": "zh-TW",
    "desc": "2013 年「喔熊」誕生開啟台灣吉祥物戰國時代。從全台黑熊大亂鬥、醜到登美國脫口秀的「虱目魚小子」，到年收上億的「福利熊」與在議會備詢的「熊讚」，台灣吉祥物正從政府宣傳工具演化為具備靈魂與社會共鳴的文化符號。",
    "city": "台南"
  },
  {
    "title": "夜生活與KTV文化",
    "lat": 25.034622,
    "lng": 121.560201,
    "category": "lifestyle",
    "region": "north",
    "link": "/lifestyle/%E5%A4%9C%E7%94%9F%E6%B4%BB%E8%88%87KTV%E6%96%87%E5%8C%96",
    "lang": "zh-TW",
    "desc": "從錢櫃包廂到深夜食堂，24 小時不打烊的島嶼夜生活",
    "city": "台北"
  },
  {
    "title": "小綠人：從交通號誌到國家符號的25年傳奇",
    "lat": 25.03267,
    "lng": 121.558733,
    "category": "lifestyle",
    "region": "north",
    "link": "/lifestyle/%E5%B0%8F%E7%B6%A0%E4%BA%BA",
    "lang": "zh-TW",
    "desc": "一位東京觀光客驚訝地停下腳步，目睹台北街頭的奇蹟——會跑步的紅綠燈。25年來，這個看似平凡的小綠人，如何從松智路的一盞燈，成為讓全世界為之驚艷的台灣文化符號？",
    "city": "台北"
  },
  {
    "title": "桃園機場：從十大建設的「中正」之名到 2026 國門重啟的千億試煉",
    "lat": 25.000939,
    "lng": 121.295311,
    "category": "lifestyle",
    "region": "north",
    "link": "/lifestyle/%E6%A1%83%E5%9C%92%E6%A9%9F%E5%A0%B4",
    "lang": "zh-TW",
    "desc": "2026 年 4 月，桃園機場第三航廈屋頂正式封頂，標誌著這座耗資 1,283 億元的國門即將迎來重生。從 1979 年「中正機場」誕生、2016 年淹水低谷，到 2025 年北登機廊廳啟用引發的轉機潮，桃園機場正試圖在亞洲航空樞紐的競爭中，找回失落的座標。",
    "city": "桃園"
  },
  {
    "title": "溫泉文化",
    "lat": 22.657138,
    "lng": 121.495303,
    "category": "lifestyle",
    "region": "east",
    "link": "/lifestyle/%E6%BA%AB%E6%B3%89%E6%96%87%E5%8C%96",
    "lang": "zh-TW",
    "desc": "從軍事療養到世界三大泥泉：台灣意外成為溫泉王國的故事",
    "city": "台東"
  },
  {
    "title": "遊覽車：載著台灣人上山下海六十年的鐵盒子，為什麼總在出事？",
    "lat": 22.629662,
    "lng": 120.295023,
    "category": "lifestyle",
    "region": "south",
    "link": "/lifestyle/%E9%81%8A%E8%A6%BD%E8%BB%8A",
    "lang": "zh-TW",
    "desc": "從日治時期 14 歲考上車掌的余劉菊蘭、1959 年金馬號開上中橫、1980 年代橫行國道的野雞車，到 2017 年蝶戀花南港翻覆 33 死、2025 年國一火燒車與杉林溪墜谷，遊覽車承載了台灣戰後所有的觀光夢、進香團與校外教學。但靠行制度、低團費競爭與長工時，讓這個鐵盒子也成了島上最危險的交通工具之一。2026 年元旦上路的駕駛身分識別新制，能不能終結這場循環？",
    "city": "高雄"
  },
  {
    "title": "高速公路：從麥帥公路到雪山隧道，台灣國道五十年的權力與速度",
    "lat": 25.121226,
    "lng": 121.733684,
    "category": "lifestyle",
    "region": "north",
    "link": "/lifestyle/%E9%AB%98%E9%80%9F%E5%85%AC%E8%B7%AF",
    "lang": "zh-TW",
    "desc": "1964 年的麥帥公路只有 23 公里，今天的台灣國道路網超過 1,000 公里。從蔣經國拍板的中山高、被嘲笑「政治路」的福高、世界最難挖的雪隧，到 ETC 改變每個駕駛的繳費習慣——一條條柏油記錄了戰後台灣的政治意志、工程極限與民間反抗。",
    "city": "基隆"
  },
  {
    "title": "五月天",
    "lat": 25.035456,
    "lng": 121.566039,
    "category": "music",
    "region": "north",
    "link": "/music/%E4%BA%94%E6%9C%88%E5%A4%A9",
    "lang": "zh-TW",
    "desc": "1997 年，五個師大附中的高中生在野台開唱用 BBS 代號報了名。三十年後，他們在台北大巨蛋十分鐘賣掉 32 萬張票，在北京鳥巢唱了 30 場，卻也在同一個舞台上說出讓台灣人心碎的四個字。",
    "city": "台北"
  },
  {
    "title": "台灣原住民音樂傳統",
    "lat": 22.674084,
    "lng": 120.486115,
    "category": "music",
    "region": "south",
    "link": "/music/%E5%8F%B0%E7%81%A3%E5%8E%9F%E4%BD%8F%E6%B0%91%E9%9F%B3%E6%A8%82%E5%82%B3%E7%B5%B1",
    "lang": "zh-TW",
    "desc": "探索台灣 16 族原住民豐富的音樂文化，從古調吟唱到傳統樂器，見證數千年文化傳承",
    "city": "屏東"
  },
  {
    "title": "台灣國樂：中國樂器上長出來的島嶼聲音",
    "lat": 25.034851,
    "lng": 121.559228,
    "category": "music",
    "region": "north",
    "link": "/music/%E5%8F%B0%E7%81%A3%E5%9C%8B%E6%A8%82",
    "lang": "zh-TW",
    "desc": "1949 年渡海而來的二胡和琵琶，七十年後在台灣演奏布農族的八部合音。台灣國樂如何從政治正統的象徵，演化成一個跟對岸截然不同的音樂物種。",
    "city": "台北"
  },
  {
    "title": "台灣樂器製造業：從后里薩克斯風到全球音樂工廠",
    "lat": 23.866851,
    "lng": 120.9229,
    "category": "music",
    "region": "central",
    "link": "/music/%E5%8F%B0%E7%81%A3%E6%A8%82%E5%99%A8%E8%A3%BD%E9%80%A0",
    "lang": "zh-TW",
    "desc": "探索台灣樂器製造業的發展歷程，從后里薩克斯風的全球霸主地位到吉他代工王國，再到音樂盒製造的精密工藝，台灣如何從代工走向自有品牌",
    "city": "南投"
  },
  {
    "title": "台灣民歌運動",
    "lat": 25.034999,
    "lng": 121.557881,
    "category": "music",
    "region": "north",
    "link": "/music/%E5%8F%B0%E7%81%A3%E6%B0%91%E6%AD%8C%E9%81%8B%E5%8B%95",
    "lang": "zh-TW",
    "desc": "從「唱自己的歌」到改變整個華語音樂圈——1970年代那場屬於年輕人的文化革命",
    "city": "台北"
  },
  {
    "title": "台灣獨立音樂：一間發不出薪水的唱片行，如何替一座島嶼打開耳朵",
    "lat": 25.031078,
    "lng": 121.568283,
    "category": "music",
    "region": "north",
    "link": "/music/%E5%8F%B0%E7%81%A3%E7%8D%A8%E7%AB%8B%E9%9F%B3%E6%A8%82",
    "lang": "zh-TW",
    "desc": "從水晶唱片負債三十萬頂下來的冒險，到草東沒有派對在咖啡店賣光首刷。台灣獨立音樂 35 年不是逆襲故事，是一群人堅持讓「沒被看見的聲音被聽見」的漫長賭局",
    "city": "台北"
  },
  {
    "title": "台灣聲音地景",
    "lat": 25.028032,
    "lng": 121.571767,
    "category": "music",
    "region": "north",
    "link": "/music/%E5%8F%B0%E7%81%A3%E8%81%B2%E9%9F%B3%E5%9C%B0%E6%99%AF",
    "lang": "zh-TW",
    "desc": "從垃圾車的致愛麗絲到布農族八部合音——用耳朵認識台灣",
    "city": "台北"
  },
  {
    "title": "台灣電子音樂與派對文化：從地下 Rave 到國際舞台",
    "lat": 25.030831,
    "lng": 121.567455,
    "category": "music",
    "region": "north",
    "link": "/music/%E5%8F%B0%E7%81%A3%E9%9B%BB%E5%AD%90%E9%9F%B3%E6%A8%82%E8%88%87%E6%B4%BE%E5%B0%8D%E6%96%87%E5%8C%96",
    "lang": "zh-TW",
    "desc": "從1990年代 Rave 派對文化到 Road to Ultra 電音節，台灣電子音樂如何從地下走向主流，孕育出國際級 DJ 與獨立電子廠牌",
    "city": "台北"
  },
  {
    "title": "台灣音樂祭文化：一座島嶼為什麼需要這麼多場戶外派對",
    "lat": 21.948,
    "lng": 120.803,
    "category": "music",
    "region": "south",
    "link": "/music/%E5%8F%B0%E7%81%A3%E9%9F%B3%E6%A8%82%E7%A5%AD%E6%96%87%E5%8C%96",
    "lang": "zh-TW",
    "desc": "從 1995 年墾丁沙灘上兩個美國人架起的舞台，到每年超過 50 場遍布全島的音樂祭。台灣的音樂祭密度可能是全世界最高，而開山鼻祖不是台灣人",
    "city": "屏東"
  },
  {
    "title": "台灣合唱團：從榮星到亞洲五強的甲子",
    "lat": 25.032907,
    "lng": 121.564153,
    "category": "music",
    "region": "north",
    "link": "/music/%E5%90%88%E5%94%B1%E5%9C%98",
    "lang": "zh-TW",
    "desc": "1957 年呂泉生與辜偉甫創立榮星兒童合唱團，把粗獷的鄉野小調改編成精緻合唱。六十多年後，台北愛樂在匈牙利舞台上自帶國旗、寶來國中合唱團三連霸世界冠軍、歐開合唱團累積 55 項國際大獎。從校園普及到國際專業，這份美聲背後是一條完整生態系，也是合唱團在政治打壓下守護尊嚴的歷史。",
    "city": "台北"
  },
  {
    "title": "從張懸到安溥——兩個名字，同一個問題",
    "lat": 23.466291,
    "lng": 120.964717,
    "category": "music",
    "region": "central",
    "link": "/music/%E5%BC%B5%E6%87%B8%E8%88%87%E5%AE%89%E6%BA%A5",
    "lang": "zh-TW",
    "desc": "13 歲寫出〈寶貝〉，32 歲因一面旗子被中國封殺，34 歲親手殺死自己的藝名。焦安溥用兩段人生回答了一個台灣人都在問的問題：你到底站哪邊？",
    "city": "南投"
  },
  {
    "title": "滅火器——游泳池旁撿到的名字，唱了二十五年",
    "lat": 22.630054,
    "lng": 120.303482,
    "category": "music",
    "region": "south",
    "link": "/music/%E6%BB%85%E7%81%AB%E5%99%A8%E6%A8%82%E5%9C%98",
    "lang": "zh-TW",
    "desc": "2000 年三個高雄高中生在游泳池旁撿了一個滅火器當團名。二十五年後，他們用台語龐克唱出太陽花學運的時代之聲，把廠牌搬回南方，在打狗祭舞台上花七分鐘告訴全場：失望可以，但不要變成你討厭的那種人。",
    "city": "高雄"
  },
  {
    "title": "農村武裝青年",
    "lat": 24.084438,
    "lng": 120.532826,
    "category": "music",
    "region": "central",
    "link": "/music/%E8%BE%B2%E6%9D%91%E6%AD%A6%E8%A3%9D%E9%9D%92%E5%B9%B4",
    "lang": "zh-TW",
    "desc": "江育達與他的民謠，在抗爭現場唱了十年，然後回到故鄉彰化，失去了兩年創作能力——他說，那才是他最革命的時刻。",
    "city": "彰化"
  },
  {
    "title": "巴拉告：馬太鞍濕地的三層魚類公寓與生態契約",
    "lat": 23.99221,
    "lng": 121.601197,
    "category": "nature",
    "region": "east",
    "link": "/nature/Palakaw",
    "lang": "zh-TW",
    "desc": "在花蓮馬太鞍濕地，阿美族人利用自然界中的「廢棄物」為魚蝦搭建三層構造的棲所。這套名為「巴拉告」的傳統漁法，不靠追逐捕獵，而是透過「給予」來換取大自然的饋贈，體現了傳承千年的生態智慧。",
    "city": "花蓮"
  },
  {
    "title": "台灣原住民生態智慧與環境保育",
    "lat": 23.989088,
    "lng": 121.603537,
    "category": "nature",
    "region": "east",
    "link": "/nature/%E5%8F%B0%E7%81%A3%E5%8E%9F%E4%BD%8F%E6%B0%91%E7%94%9F%E6%85%8B%E6%99%BA%E6%85%A7%E8%88%87%E7%92%B0%E5%A2%83%E4%BF%9D%E8%82%B2",
    "lang": "zh-TW",
    "desc": "探討台灣原住民族數千年來累積的傳統生態知識，以及在現代環境保育中的重要價值與實踐方式",
    "city": "花蓮"
  },
  {
    "title": "島嶼的山海之巔：台灣國家公園的生態與地景",
    "lat": 23.466839,
    "lng": 120.961705,
    "category": "nature",
    "region": "central",
    "link": "/nature/%E5%8F%B0%E7%81%A3%E5%9C%8B%E5%AE%B6%E5%85%AC%E5%9C%92",
    "lang": "zh-TW",
    "desc": "探索台灣九座國家公園的獨特生態系統與保育價值，從亞熱帶海岸到高山雪線的完整地景",
    "city": "南投"
  },
  {
    "title": "台灣山岳與登山文化",
    "lat": 23.465329,
    "lng": 120.950071,
    "category": "nature",
    "region": "central",
    "link": "/nature/%E5%8F%B0%E7%81%A3%E5%B1%B1%E5%B2%B3%E8%88%87%E7%99%BB%E5%B1%B1%E6%96%87%E5%8C%96",
    "lang": "zh-TW",
    "desc": "268座三千公尺高山擠在一座島上，台灣人卻花了半世紀才被允許自由爬自己的山",
    "city": "南投"
  },
  {
    "title": "冰河孑遺的微笑：台灣山椒魚的百年身世與科技守護之路",
    "lat": 23.511577,
    "lng": 120.705677,
    "category": "nature",
    "region": "south",
    "link": "/nature/%E5%8F%B0%E7%81%A3%E5%B1%B1%E6%A4%92%E9%AD%9A",
    "lang": "zh-TW",
    "desc": "在台灣高山深處，五種特有種山椒魚默默承載著冰河時期的記憶。牠們是高山生態指標，也是一段百年來科學家不斷探索、正名、甚至付出生命的故事。2025 年人工孵化技術的突破，為這些「微笑的高山精靈」帶來新希望。",
    "city": "嘉義"
  },
  {
    "title": "台灣島嶼博物學：島嶼與世界的生命對話",
    "lat": 22.907,
    "lng": 121.122,
    "category": "nature",
    "region": "east",
    "link": "/nature/%E5%8F%B0%E7%81%A3%E5%B3%B6%E5%B6%BC%E5%8D%9A%E7%89%A9%E5%AD%B8",
    "lang": "zh-TW",
    "desc": "從冰河時期的陸橋遷徙到南島語族的構樹基因，台灣不僅是生物的避難所，更是演化的十字路口。透過博物學家的雙眼，重新發現這座島嶼如何與世界進行生命對話。",
    "city": "台東"
  },
  {
    "title": "台灣森林生態系",
    "lat": 23.469171,
    "lng": 120.960721,
    "category": "nature",
    "region": "central",
    "link": "/nature/%E5%8F%B0%E7%81%A3%E6%A3%AE%E6%9E%97%E7%94%9F%E6%85%8B%E7%B3%BB",
    "lang": "zh-TW",
    "desc": "一趟從海平面到玉山頂峰的垂直旅行，穿越地球上最密集的森林光譜",
    "city": "南投"
  },
  {
    "title": "台灣氣候危機與淨零轉型",
    "lat": 24.078129,
    "lng": 120.535513,
    "category": "nature",
    "region": "central",
    "link": "/nature/%E5%8F%B0%E7%81%A3%E6%B0%A3%E5%80%99%E5%8D%B1%E6%A9%9F%E8%88%87%E6%B7%A8%E9%9B%B6%E8%BD%89%E5%9E%8B",
    "lang": "zh-TW",
    "desc": "升溫速度比全球快一半、98% 能源靠進口——一座島嶼賭上 9 兆台幣重建自己的能源系統",
    "city": "彰化"
  },
  {
    "title": "台灣水鹿：從消失的「山中神獸」到重返低海拔的生態工程師",
    "lat": 23.475793,
    "lng": 120.952297,
    "category": "nature",
    "region": "central",
    "link": "/nature/%E5%8F%B0%E7%81%A3%E6%B0%B4%E9%B9%BF",
    "lang": "zh-TW",
    "desc": "2025 年，當登山客在能高越嶺道輕鬆與水鹿對視時，很難想像三十年前見到牠像中彩券一樣難。這篇文探討台灣最大型草食獸如何從瀕滅邊緣回歸，以及牠們為何開始「啃樹皮」——背後牽動著動物自我醫療的研究發現、台灣高山生態的複雜平衡，以及原住民族的文化記憶。",
    "city": "南投"
  },
  {
    "title": "台灣海洋保育：為什麼花30年建成的體系，救不了一場珊瑚白化？",
    "lat": 22.338,
    "lng": 120.373,
    "category": "nature",
    "region": "south",
    "link": "/nature/%E5%8F%B0%E7%81%A3%E6%B5%B7%E6%B4%8B%E4%BF%9D%E8%82%B2%E8%88%87%E6%8C%91%E6%88%B0",
    "lang": "zh-TW",
    "desc": "2020年，台灣海域經歷史上最大規模珊瑚白化。從小琉球到東沙環礁，連保護區內的珊瑚都在高溫中死去。這暴露了什麼問題？",
    "city": "屏東"
  },
  {
    "title": "台灣海洋污染治理與保育挑戰",
    "lat": 22.340726,
    "lng": 120.377011,
    "category": "nature",
    "region": "south",
    "link": "/nature/%E5%8F%B0%E7%81%A3%E6%B5%B7%E6%B4%8B%E6%B1%A1%E6%9F%93%E6%B2%BB%E7%90%86%E8%88%87%E4%BF%9D%E8%82%B2%E6%8C%91%E6%88%B0",
    "lang": "zh-TW",
    "desc": "面對海洋廢棄物、過度捕撈與氣候變遷，探討台灣海洋保育的現況、挑戰與創新解決方案",
    "city": "屏東"
  },
  {
    "title": "台灣海洋生態",
    "lat": 22.033518,
    "lng": 121.549696,
    "category": "nature",
    "region": "east",
    "link": "/nature/%E5%8F%B0%E7%81%A3%E6%B5%B7%E6%B4%8B%E7%94%9F%E6%85%8B",
    "lang": "zh-TW",
    "desc": "達悟族用禁忌守護的海域，如今在高溫與水下噪音中白化：當數千年生態智慧遇上現代海洋危機",
    "city": "台東"
  },
  {
    "title": "台灣海洋生態與珊瑚礁保育",
    "lat": 21.948356,
    "lng": 120.800517,
    "category": "nature",
    "region": "south",
    "link": "/nature/%E5%8F%B0%E7%81%A3%E6%B5%B7%E6%B4%8B%E7%94%9F%E6%85%8B%E8%88%87%E7%8F%8A%E7%91%9A%E7%A4%81%E4%BF%9D%E8%82%B2",
    "lang": "zh-TW",
    "desc": "台灣四面環海擁有豐富海洋生態，從珊瑚礁白化危機到鯨豚保育，探討海洋國家公園的保護成效與未來挑戰",
    "city": "屏東"
  },
  {
    "title": "台灣溫泉與地熱",
    "lat": 22.663531,
    "lng": 121.501135,
    "category": "nature",
    "region": "east",
    "link": "/nature/%E5%8F%B0%E7%81%A3%E6%BA%AB%E6%B3%89%E8%88%87%E5%9C%B0%E7%86%B1",
    "lang": "zh-TW",
    "desc": "從 30 年前失敗的地熱電廠到世界唯一北投石：一座島嶼如何把地底之火變成療癒與綠電",
    "city": "台東"
  },
  {
    "title": "台灣獼猴：在中山大學的生存博弈、母系權力與萬年定居者的真相",
    "lat": 22.633987,
    "lng": 120.306426,
    "category": "nature",
    "region": "south",
    "link": "/nature/%E5%8F%B0%E7%81%A3%E7%8D%BC%E7%8C%B4",
    "lang": "zh-TW",
    "desc": "從中山大學學生「持槍取外送」的荒謬日常，到 1862 年史溫侯首次向西方介紹這座島嶼的靈長類，台灣獼猴常被冠以「流氓」之名。背後是一個萬年前就定居柴山的嚴謹母系社會，在校園擴張與人類餵食下，被迫演化出的生存文化。",
    "city": "高雄"
  },
  {
    "title": "台灣石虎保育",
    "lat": 24.562823,
    "lng": 120.815216,
    "category": "nature",
    "region": "central",
    "link": "/nature/%E5%8F%B0%E7%81%A3%E7%9F%B3%E8%99%8E%E4%BF%9D%E8%82%B2",
    "lang": "zh-TW",
    "desc": "全台剩不到五百隻的幽靈貓——當最後的原生貓科走上消失的邊緣",
    "city": "苗栗"
  },
  {
    "title": "台灣穿山甲",
    "lat": 25.035893,
    "lng": 121.559061,
    "category": "nature",
    "region": "north",
    "link": "/nature/%E5%8F%B0%E7%81%A3%E7%A9%BF%E5%B1%B1%E7%94%B2",
    "lang": "zh-TW",
    "desc": "全世界被走私最多的哺乳動物，在台灣找到了一個安全的家",
    "city": "台北"
  },
  {
    "title": "台灣藍鵲：都市叢林裡的藍色幫派，與一場跨百年的基因保衛戰",
    "lat": 25.03628,
    "lng": 121.565666,
    "category": "nature",
    "region": "north",
    "link": "/nature/%E5%8F%B0%E7%81%A3%E8%97%8D%E9%B5%B2",
    "lang": "zh-TW",
    "desc": "2007 年以 18 萬票奪下國鳥寶座，這顆山林寶石卻是會「打群架」的強悍家族。從 1862 年郇和採集的首個標本，到今日適應都市搶食貓糧，牠們以 97% 的巢邊幫手制在競爭中勝出。這是一個關於生存、家族凝聚力、基因保衛戰，以及人鳥共存智慧的島嶼故事。",
    "city": "台北"
  },
  {
    "title": "台灣高山生態系與冰河孑遺",
    "lat": 23.471112,
    "lng": 120.94989,
    "category": "nature",
    "region": "central",
    "link": "/nature/%E5%8F%B0%E7%81%A3%E9%AB%98%E5%B1%B1%E7%94%9F%E6%85%8B%E7%B3%BB%E8%88%87%E5%86%B0%E6%B2%B3%E5%AD%91%E9%81%BA",
    "lang": "zh-TW",
    "desc": "探討台灣3000公尺以上高山環境的獨特生態系統，從台灣杉、玉山杜鵑到冰河時期孑遺物種的珍貴生物多樣性",
    "city": "南投"
  },
  {
    "title": "台灣黑熊",
    "lat": 25.029647,
    "lng": 121.571797,
    "category": "nature",
    "region": "north",
    "link": "/nature/%E5%8F%B0%E7%81%A3%E9%BB%91%E7%86%8A",
    "lang": "zh-TW",
    "desc": "胸前的白色 V 字是牠的簽名——台灣山林最後的王者，與牠未完的保育戰",
    "city": "台北"
  },
  {
    "title": "國家公園",
    "lat": 24.165867,
    "lng": 121.61879,
    "category": "nature",
    "region": "east",
    "link": "/nature/%E5%9C%8B%E5%AE%B6%E5%85%AC%E5%9C%92",
    "lang": "zh-TW",
    "desc": "36,197 平方公里塞進 9 座國家公園，密度世界第一的保育奇蹟",
    "city": "花蓮"
  },
  {
    "title": "梅雨：從 1981 年那場淹掉桃竹苗與大台北的雨，到一場讓美國人飛來台灣的科學實驗",
    "lat": 25.030712,
    "lng": 121.56806,
    "category": "nature",
    "region": "north",
    "link": "/nature/%E6%A2%85%E9%9B%A8",
    "lang": "zh-TW",
    "desc": "1981 年 5 月 28 日清晨，一道梅雨鋒面在桃竹苗與大台北引爆，公館一帶錄到時雨量逾 140 公厘，全台 8 死、千棟民宅受損。六年後 TAMEX 計畫展開，125 位以上美台科學家在斷交陰影下用一架 NOAA P-3、3 艘觀測船、3 部都卜勒雷達追逐鋒面。四十年後，這道每年五、六月準時報到的滯留鋒面，仍是 2,300 萬人飲用水的命脈，也是淹沒整座城市的兇手。",
    "city": "台北"
  },
  {
    "title": "台灣水獺：金門歐亞水獺的孤島求生記與本島的靜默消逝",
    "lat": 24.448263,
    "lng": 118.370542,
    "category": "nature",
    "region": "islands",
    "link": "/nature/%E6%B0%B4%E7%8D%BA",
    "lang": "zh-TW",
    "desc": "台灣本島歐亞水獺自1980年代後便無確切野外紀錄，族群現況不明且極不樂觀。目前僅存於金門的「戰地水獺」正面臨棲地破碎、路殺與微塑膠污染的多重夾擊。",
    "city": "金門"
  },
  {
    "title": "特有種",
    "lat": 23.463978,
    "lng": 120.961495,
    "category": "nature",
    "region": "central",
    "link": "/nature/%E7%89%B9%E6%9C%89%E7%A8%AE",
    "lang": "zh-TW",
    "desc": "台灣豐富的特有種生物，展現島嶼生物地理學的演化奇蹟與保育重要性",
    "city": "南投"
  },
  {
    "title": "生態多樣性",
    "lat": 23.46713,
    "lng": 120.951697,
    "category": "nature",
    "region": "central",
    "link": "/nature/%E7%94%9F%E6%85%8B%E5%A4%9A%E6%A8%A3%E6%80%A7",
    "lang": "zh-TW",
    "desc": "台灣面積僅佔全球0.025%，卻擁有超過5萬種生物，森林覆蓋率60.71%排名全球第33位",
    "city": "南投"
  },
  {
    "title": "福爾摩沙鳥類學：一個英國副領事、201 個拉丁名字，和他沒踏進去的山",
    "lat": 25.17203,
    "lng": 121.434545,
    "category": "nature",
    "region": "north",
    "link": "/nature/%E7%A6%8F%E7%88%BE%E6%91%A9%E6%B2%99%E9%B3%A5%E9%A1%9E%E5%AD%B8",
    "lang": "zh-TW",
    "desc": "1861 年，24 歲的史溫侯成為英國首任駐台副領事。五年後他離開時，留下一篇論文，讓世界第一次用拉丁文寫下台灣的鳥。但他的鳥類地圖，是一張從海岸線描出的地圖——中央山脈的空白裡，原住民已經用族語喊過這些鳥千年。",
    "city": "新北"
  },
  {
    "title": "臺灣的鯨豚",
    "lat": 23.997036,
    "lng": 121.597788,
    "category": "nature",
    "region": "east",
    "link": "/nature/%E8%87%BA%E7%81%A3%E7%9A%84%E9%AF%A8%E8%B1%9A",
    "lang": "zh-TW",
    "desc": "全球三分之一鯨豚物種的棲息地——從昔日捕鯨到今日賞鯨，臺灣如何轉身成為海洋生態研究重鎮？",
    "city": "花蓮"
  },
  {
    "title": "蘭嶼生態系：黑潮邊境的生命密碼",
    "lat": 22.032786,
    "lng": 121.547733,
    "category": "nature",
    "region": "east",
    "link": "/nature/%E8%98%AD%E5%B6%BC%E7%94%9F%E6%85%8B%E7%B3%BB",
    "lang": "zh-TW",
    "desc": "蘭嶼不屬於台灣，至少在生物學上如此。這座菲律賓火山島弧最北端的小島，被黑潮帶來的熱帶生命填滿，又在達悟族千年的生態智慧中，找到了人與自然的平衡。",
    "city": "台東"
  },
  {
    "title": "能預測路徑，預測不了命運：台灣與颱風的四百年",
    "lat": 23.515698,
    "lng": 120.701169,
    "category": "nature",
    "region": "south",
    "link": "/nature/%E9%A2%B1%E9%A2%A8",
    "lang": "zh-TW",
    "desc": "從清代先民在澎湖目睹颶風，到 2009 年小林村在暴雨中消失，台灣與颱風共生的歷史從未停歇。如今我們能用 AI 在四分鐘內預測三十天後的颱風路徑，但氣象專家吳德榮說了一個反直覺的真相：中央山脈不是保護我們的神，而是把風變成水的加壓器。",
    "city": "嘉義"
  },
  {
    "title": "黃魚鴞：六公里溪流養一對，1,800 公尺烏心石上的夜行猛禽",
    "lat": 25.027042,
    "lng": 121.565683,
    "category": "nature",
    "region": "north",
    "link": "/nature/%E9%BB%83%E9%AD%9A%E9%B4%9E",
    "lang": "zh-TW",
    "desc": "2026 年 4 月，屏科大助理教授洪孝宇在七家灣溪畔一棵胸徑約 1.5 公尺的烏心石樹洞裡，定位到全台已知最高的黃魚鴞巢位——海拔約 1,800 公尺。這種台灣最大的貓頭鷹 1916 年才由日籍學者黑田長禮首次記錄，屏東科技大學孫元勳研究室追了三十年，91 個領域平均每對需要 6.2 公里長的溪。一段沒被水泥的溪、一棵還沒倒的巨木——黃魚鴞活在台灣山林兩件事還沒消失的縫隙裡。",
    "city": "台北"
  },
  {
    "title": "黑冠麻鷺：賞鳥者的夢幻物種，校園裡的大笨鳥",
    "lat": 25.034946,
    "lng": 121.570168,
    "category": "nature",
    "region": "north",
    "link": "/nature/%E9%BB%91%E5%86%A0%E9%BA%BB%E9%B7%BA",
    "lang": "zh-TW",
    "desc": "1985 到 1992 年中華鳥會 4,000 筆鳥類紀錄裡，黑冠麻鷺只佔 25 筆，是賞鳥圖鑑上的「稀有留鳥」。三十年後牠在台大椰林大道、大安森林公園天天可見。通行說法是「牠變不怕人」，但台大袁孝維 2010 年起的繫放研究指向另一個答案：台灣都市的密林化校園與不噴藥草坪，剛好複製了牠原本的低海拔森林棲位——鳥沒變，地變了。",
    "city": "台北"
  },
  {
    "title": "黑面琵鷺：從三百隻到七千隻，這場跨國復育奇蹟正迎來「成功的代價」",
    "lat": 22.992591,
    "lng": 120.22819,
    "category": "nature",
    "region": "south",
    "link": "/nature/%E9%BB%91%E9%9D%A2%E7%90%B5%E9%B7%BA",
    "lang": "zh-TW",
    "desc": "2026 年全球普查顯示黑面琵鷺已達 7,746 隻，台灣記錄到 4,719 隻創歷史新高。這群曾瀕臨滅絕的「黑面舞者」雖在 2025 年調降保育等級，卻在度冬地台灣面臨光電開發、肉毒桿菌與遊蕩犬攻擊等新興生存挑戰。",
    "city": "台南"
  },
  {
    "title": "Cicada：從 2009 年莫拉克到 2022 年丹大溪源的十五年田野錄音",
    "lat": 22.035944,
    "lng": 121.551311,
    "category": "people",
    "region": "east",
    "link": "/people/Cicada",
    "lang": "zh-TW",
    "desc": "2009 年在台北成立的 Cicada 是全器樂、無人聲的獨立樂團。創團鋼琴手江致潔（北藝大藝術史碩士）因為看到那年莫拉克颱風的新聞寫下第一批曲子。之後十五年，他們把台灣的海岸消逝、海洋生態、山林溪源變成一張張沒有人聲的專輯。2022 年《棲居在溪源之上》是一場 15 天、120 公里的中央山脈遠征產物；配樂作品獲日本 Academy Prize。2024 年《回返》回到西海岸「之間」——山與水、森林與土地的那段間隙。",
    "city": "台東"
  },
  {
    "title": "伍佰：六腳鄉蒜頭村出發，台語搖滾三十年不折扣",
    "lat": 23.478851,
    "lng": 120.443424,
    "category": "people",
    "region": "south",
    "link": "/people/%E4%BC%8D%E4%BD%B0",
    "lang": "zh-TW",
    "desc": "本名吳俊霖，1968年出生於嘉義縣六腳鄉蒜頭村。1992年組成「伍佰&China Blue」，1995年《挪威的森林》確立台語搖滾路線。2016年發行《釘子花》，2017年奪金曲獎最佳台語專輯。2025年發行新專輯《純白的起點》，ROCK STAR 2 巡演橫跨兩岸。",
    "city": "嘉義"
  },
  {
    "title": "侯孝賢",
    "lat": 25.033855,
    "lng": 121.561833,
    "category": "people",
    "region": "north",
    "link": "/people/%E4%BE%AF%E5%AD%9D%E8%B3%A2",
    "lang": "zh-TW",
    "desc": "拒絕特寫鏡頭卻征服世界的電影詩人——一個反電影語法的影像革命者",
    "city": "台北"
  },
  {
    "title": "八炯：從花蓮太魯閣族青年到被中共懸賞百萬的「聽床師」",
    "lat": 24.154667,
    "lng": 121.613767,
    "category": "people",
    "region": "east",
    "link": "/people/%E5%85%AB%E7%82%AF",
    "lang": "zh-TW",
    "desc": "2025 年 11 月，福建泉州公安局發布了一則懸賞通告，對象是台灣網紅八炯。這位從花蓮新城鄉出發、曾以旅遊影片獲獎的太魯閣族青年，在短短六年間，憑藉著對中共體制的辛辣嘲諷與「反共」流量，從一名地方創作者變成了國台辦口中的「台獨打手」，並在國際舞台上持續揭露中共統戰內幕。",
    "city": "花蓮"
  },
  {
    "title": "劉安婷",
    "lat": 24.145571,
    "lng": 120.676838,
    "category": "people",
    "region": "central",
    "link": "/people/%E5%8A%89%E5%AE%89%E5%A9%B7",
    "lang": "zh-TW",
    "desc": "2008 年從台中女中進普林斯頓，2013 年 23 歲辭紐約顧問工作回台灣創辦 TFT 為台灣而教。2016 年在成大畢業典禮問了一句「你拿幸運做什麼？」，那句話變成整整一代人的集體語錄。但她最常講的另一句話是「不要相信我個人」。2024 年 10 週年後，她把 TFT 董事長交給林妍希，自己轉任董事。她最好的作品不是 TFT，是讓 TFT 可以不在她身上。",
    "city": "台中"
  },
  {
    "title": "卓榮泰：從謝長廷議會助理到不副署財劃法的協調者",
    "lat": 25.033043,
    "lng": 121.562802,
    "category": "people",
    "region": "north",
    "link": "/people/%E5%8D%93%E6%A6%AE%E6%B3%B0",
    "lang": "zh-TW",
    "desc": "中華民國第 31 任行政院長。1987 年從謝長廷議會助理起步，38 年都在當人家的秘書長與副手；2024 年接下賴清德首任閣揆後，要面對少數政府、川普關稅、1.25 兆軍購、大罷免全敗，2025 年 12 月成為憲政首例不副署財劃法的院長。",
    "city": "台北"
  },
  {
    "title": "史溫侯：當外交官變成博物學家",
    "lat": 25.164634,
    "lng": 121.442563,
    "category": "people",
    "region": "north",
    "link": "/people/%E5%8F%B2%E6%BA%AB%E4%BE%AF",
    "lang": "zh-TW",
    "desc": "1856年，一個19歲的英國翻譯官在福爾摩沙西海岸記下他看到的第一隻鳥。四年後，他以52篇論文讓世界第一次認識這座島上住著什麼生物。他41歲死在倫敦，但他命名的物種至今仍在台灣的山林裡活著。",
    "city": "新北"
  },
  {
    "title": "吳哲宇（Che-Yu Wu）：從彈珠檯到威尼斯白牆，用 0 與 1 逼近靈魂的鐘錶匠",
    "lat": 25.031311,
    "lng": 121.57042,
    "category": "people",
    "region": "north",
    "link": "/people/%E5%90%B3%E5%93%B2%E5%AE%87",
    "lang": "zh-TW",
    "desc": "一個對系統著迷的台灣男孩，從彈珠檯、Flash 動畫、生物模擬器開始，走到威尼斯雙年展、Art Blocks、台北 101 三部曲個展。中間經過 NFT 破億、FTX 一夜歸零、卡繆荒謬主義的再次啟程。他自稱「古老的鐘錶匠」，堅持在 AI 生成氾濫的時代親手設計機制本身，並把一部分時間拿去寫 Markdown，為 AI 時代的台灣留一份真正的 SSOT。",
    "city": "台北"
  },
  {
    "title": "吳寶春：一個對排灣族孩子的承諾",
    "lat": 22.67852,
    "lng": 120.476552,
    "category": "people",
    "region": "south",
    "link": "/people/%E5%90%B3%E5%AF%B6%E6%98%A5",
    "lang": "zh-TW",
    "desc": "屏東農村子弟，中學學歷，不會法語。他用一條荔枝玫瑰麵包在巴黎拿下全球第一個麵包大師金牌——裡面裝著一個十年前對原住民孩子許下的承諾。",
    "city": "屏東"
  },
  {
    "title": "吳百福（安藤百福）：從嘉義朴子到全球餐桌，台灣基因與日本包裝的全球傳奇",
    "lat": 23.481029,
    "lng": 120.443496,
    "category": "people",
    "region": "south",
    "link": "/people/%E5%90%B3%E7%99%BE%E7%A6%8F",
    "lang": "zh-TW",
    "desc": "1961年，安藤百福以2300萬日圓買下張國文的泡麵專利申請權。這不僅是一場商業交易，更是一場關於發明定義權的跨國角力。這位出身嘉義朴子的企業家，將台灣傳統雞絲麵的靈魂轉化為日本國民食，並透過「合味道」杯麵徹底改變全球飲食習慣。本文深入探討他在日治台灣的創業起點、戰後入獄的體悟、以及身份與家庭在兩國間的糾葛。",
    "city": "嘉義"
  },
  {
    "title": "呂秀蓮",
    "lat": 24.998495,
    "lng": 121.299904,
    "category": "people",
    "region": "north",
    "link": "/people/%E5%91%82%E7%A7%80%E8%93%AE",
    "lang": "zh-TW",
    "desc": "從叛亂犯到副總統：華人世界第一位女性副總統的傳奇人生",
    "city": "桃園"
  },
  {
    "title": "周子瑜",
    "lat": 22.998904,
    "lng": 120.234469,
    "category": "people",
    "region": "south",
    "link": "/people/%E5%91%A8%E5%AD%90%E7%91%9C",
    "lang": "zh-TW",
    "desc": "一個從未談過政治的台南女孩，被一面 8 秒的國旗變成台灣命運的轉捩點。十年後她在大巨蛋念出親筆信：「我沒有離開，不是因為乖，是因為我真的渴望」。",
    "city": "台南"
  },
  {
    "title": "嚴長壽：郵件室小弟到觀光教父，然後他把一切都丟了",
    "lat": 22.756,
    "lng": 121.144,
    "category": "people",
    "region": "east",
    "link": "/people/%E5%9A%B4%E9%95%B7%E5%A3%BD",
    "lang": "zh-TW",
    "desc": "高中學歷，23 歲在美國運通送信。五年後當上總經理。再五年成為亞洲頂級飯店總裁，發明了「客人還沒下車就叫出名字」的服務系統。60 萬本暢銷書。然後他 62 歲辭職去台東偏鄉辦學校，隔年切了一顆腎。78 歲在太平洋邊蓋了一座藝術園區。",
    "city": "台東"
  },
  {
    "title": "壞特?te：醫學系讀九年的優等生，按下暫停鍵的那場休學",
    "lat": 24.796506,
    "lng": 120.962216,
    "category": "people",
    "region": "north",
    "link": "/people/%E5%A3%9E%E7%89%B9",
    "lang": "zh-TW",
    "desc": "2021 年 8 月 21 日，戴著黑帽墨鏡的壞特?te 上台領第 32 屆金曲獎最佳新人獎。她對著鏡頭說：「請你們不要害怕。」她本名林芝儀、新竹香山人、新竹女中、國防醫學院醫學系讀了九年，含大三那年的休學一年、含延畢一年（兩年實習因沒跟診花三年完成）。她完成實習醫師訓練、取得醫學士學位，得獎時白天還在開刀房戴口罩當實習醫師。台灣最會讀書的賽道上，她按下暫停鍵的那一年。",
    "city": "新竹"
  },
  {
    "title": "孫運璿：從黑暗中點亮台灣的工程師院長",
    "lat": 25.034347,
    "lng": 121.566726,
    "category": "people",
    "region": "north",
    "link": "/people/%E5%AD%AB%E9%81%8B%E7%92%BF",
    "lang": "zh-TW",
    "desc": "從戰後廢墟中的五個月復電奇蹟，到押注半導體產業的遠見，孫運璿以工程師的務實與清廉，奠定了台灣現代化的基石。",
    "city": "台北"
  },
  {
    "title": "安芝儇",
    "lat": 22.62678,
    "lng": 120.307463,
    "category": "people",
    "region": "south",
    "link": "/people/%E5%AE%89%E8%8A%9D%E5%84%87",
    "lang": "zh-TW",
    "desc": "從韓國職業應援到移居高雄，她把「來台演出」推進成「在台生活」的韓籍啦啦隊新路徑。",
    "city": "高雄"
  },
  {
    "title": "幾米：血癌之後的宜蘭插畫師，把繪本帶上國際舞台",
    "lat": 24.744721,
    "lng": 121.752913,
    "category": "people",
    "region": "north",
    "link": "/people/%E5%B9%BE%E7%B1%B3",
    "lang": "zh-TW",
    "desc": "本名廖福彬，1958年11月15日生於宜蘭。文化大學美術系畢業，廣告公司工作十二年。1995年診斷出血癌，康復後全力投入繪本創作。1998年首兩本繪本《森林裡的祕密》、《微笑的魚》同年出版。2001年《向左走·向右走》由杜琪峯與韋家輝共同執導改編電影。2013年宜蘭幾米廣場開幕。2026年3月香港海港城25周年特展《偶然相遇的微光》。",
    "city": "宜蘭"
  },
  {
    "title": "康士坦的變化球：「樂團不是靠堅持，不好玩就散了」的十年",
    "lat": 23.511199,
    "lng": 120.705372,
    "category": "people",
    "region": "south",
    "link": "/people/%E5%BA%B7%E5%A3%AB%E5%9D%A6%E7%9A%84%E8%AE%8A%E5%8C%96%E7%90%83",
    "lang": "zh-TW",
    "desc": "2013 年成立於台北的四人獨立樂團，團名結合希臘哲學家 Heraclitus 的「萬物皆流」與棒球投手的變化球。主唱 ARNY 是菲律賓出生、曾在滅火器打過貝斯的 20 年音樂人；鼓手小米罹患類風濕性關節炎至今拇指無法彎曲仍然打鼓；貝斯手金毛說「樂團不是靠堅持，不好玩就散了」。他們從 Legacy 兩人觀眾唱到 2023 年北流 5,000 人，中間沒有暴紅、沒有爆款單曲——只有十年的穩步進化。",
    "city": "嘉義"
  },
  {
    "title": "廖鴻基：從鏢魚船到黑潮漂流，用生命丈量台灣海域的討海作家",
    "lat": 23.989452,
    "lng": 121.596184,
    "category": "people",
    "region": "east",
    "link": "/people/%E5%BB%96%E9%B4%BB%E5%9F%BA",
    "lang": "zh-TW",
    "desc": "廖鴻基於1992年轉身成為討海人，創辦黑潮海洋文教基金會，並以「黑潮101」與「抹香鯨π計畫」重新定義台灣人的海洋視角，是當代海洋文學與生態保育的關鍵推手。",
    "city": "花蓮"
  },
  {
    "title": "張志祺：從圖文不符到志祺七七，在極化時代尋找對話的「資訊策展人」",
    "lat": 22.995133,
    "lng": 120.215545,
    "category": "people",
    "region": "south",
    "link": "/people/%E5%BC%B5%E5%BF%97%E7%A5%BA",
    "lang": "zh-TW",
    "desc": "以「志祺七七」日更七年、165 萬訂閱著稱的資訊設計師，把複雜社會議題轉譯成懶人包。他在極化時代持續尋找台灣社會還能對話的可能性。",
    "city": "台南"
  },
  {
    "title": "張惠妹：卑南族歌手，1996《姊妹》到2024大巨蛋五場",
    "lat": 22.751948,
    "lng": 121.147243,
    "category": "people",
    "region": "east",
    "link": "/people/%E5%BC%B5%E6%83%A0%E5%A6%B9",
    "lang": "zh-TW",
    "desc": "1972年8月9日生於台東縣卑南鄉，張惠妹是台灣卑南族歌手，華語流行音樂史上最成功的女歌手之一。1996年首專《姊妹》在台灣銷售121萬張、亞洲400萬張。2015年「烏托邦」台北小巨蛋連辦10場。2024年12月大巨蛋 ASMeiR MAXXX 5場，製作費2億、現場施放熱氣球。生涯累計銷量逾5000萬張。",
    "city": "台東"
  },
  {
    "title": "張艾嘉：嘉義出發，《童年》原唱到《相愛相親》導演",
    "lat": 23.475403,
    "lng": 120.442455,
    "category": "people",
    "region": "south",
    "link": "/people/%E5%BC%B5%E8%89%BE%E5%98%89",
    "lang": "zh-TW",
    "desc": "1953年生於嘉義市，張艾嘉17歲因《夢中人》踏入演藝圈。《童年》（羅大佑1981作曲）是她的歌，《愛的代價》（李宗盛1992作曲）是她最廣為人知的代表作。1986年《最愛》拿金馬最佳女主角；2017年《相愛相親》入圍金馬最佳導演與最佳原著劇本。跨越演員、導演、歌手三個身份，超過五十年。",
    "city": "嘉義"
  },
  {
    "title": "張雨生：從偶像到預言家，一場跨越時代的音樂實驗",
    "lat": 25.173914,
    "lng": 121.444156,
    "category": "people",
    "region": "north",
    "link": "/people/%E5%BC%B5%E9%9B%A8%E7%94%9F",
    "lang": "zh-TW",
    "desc": "1989年，天馬藝工隊隊長的兒子以《天天想你》35萬張出道成為偶像；1994年，他用73分鐘樂團現場錄音回應市場，銷量慘澹卻被稱為預言。張雨生在偶像身份和創作良知之間磨了九年，《口是心非》上市四天後，他在淡水的凌晨翻車，再也沒有醒來。",
    "city": "新北"
  },
  {
    "title": "徐佳瑩：從護理師到金曲歌后，把選秀冠軍寫成創作題的人",
    "lat": 25.031466,
    "lng": 121.572308,
    "category": "people",
    "region": "north",
    "link": "/people/%E5%BE%90%E4%BD%B3%E7%91%A9",
    "lang": "zh-TW",
    "desc": "2008 年徐佳瑩辭掉護理工作，瞞著家人報名《超級星光大道》第三屆，差點買票回台中。〈身騎白馬〉把歌仔戲唱進選秀舞台，2018 年《心裡學》拿下金曲歌后與最佳國語專輯；到《給》與〈不在一起就不會分開〉，她把被評分的人生，慢慢寫成自己的題目。",
    "city": "台北"
  },
  {
    "title": "徐巧芯：從早餐店女兒到「8000 億軍購」立委的流量年輕化",
    "lat": 25.037031,
    "lng": 121.568126,
    "category": "people",
    "region": "north",
    "link": "/people/%E5%BE%90%E5%B7%A7%E8%8A%AF",
    "lang": "zh-TW",
    "desc": "台北市第七選區立法委員。1989 年生於台北早餐店家庭，2013 年 24 歲成國民黨史上最年輕中常委，2024 年 89,727 票擊敗許淑華進入立法院。2025 大罷免 6.2 萬同意票達門檻仍被否決；2026 軍購協商提出 8000 億版本與黨中央 3800 億+N 對撞，季麟連點名「不要做親痛仇快的事」。",
    "city": "台北"
  },
  {
    "title": "戴資穎",
    "lat": 22.622189,
    "lng": 120.297989,
    "category": "people",
    "region": "south",
    "link": "/people/%E6%88%B4%E8%B3%87%E7%A9%8E",
    "lang": "zh-TW",
    "desc": "214週世界球后紀錄保持者，從高雄前鎮到奧運銀牌的台灣羽球女王",
    "city": "高雄"
  },
  {
    "title": "施明德：二十五年鐵窗，最終對自己的黨舉起了旗",
    "lat": 25.036652,
    "lng": 121.563742,
    "category": "people",
    "region": "north",
    "link": "/people/%E6%96%BD%E6%98%8E%E5%BE%B7",
    "lang": "zh-TW",
    "desc": "1979年美麗島事件後，施明德以主謀之名在軍法庭上慷慨陳詞，不認罪，不求饒，最終被判無期徒刑。他前後坐牢二十五年，是台灣民主運動最重要的受難者之一。但2006年，這個幫民進黨打下江山的人，轉身發起倒扁紅衫軍。2024年1月15日，他的83歲生日那天，帶著這個無解的矛盾離世。",
    "city": "台北"
  },
  {
    "title": "明華園：1929台南創立，四代陳家的歌仔戲帝國",
    "lat": 22.997467,
    "lng": 120.232324,
    "category": "people",
    "region": "south",
    "link": "/people/%E6%98%8E%E8%8F%AF%E5%9C%92",
    "lang": "zh-TW",
    "desc": "1929年陳明吉創立於台南，1962年遷至屏東潮州。第二代陳勝福引進現代劇場技術，使歌仔戲登上國家劇院。旗下天地玄黃日月星辰八個子團，2024年《散戲》第四度巡演迎接95周年。",
    "city": "台南"
  },
  {
    "title": "曾雅妮",
    "lat": 24.996161,
    "lng": 121.295191,
    "category": "people",
    "region": "north",
    "link": "/people/%E6%9B%BE%E9%9B%85%E5%A6%AE",
    "lang": "zh-TW",
    "desc": "109週世界第一，LPGA 15冠5大賽，22歲成史上最年輕擁有5座大賽金盃的球員，超越老虎伍茲的紀錄；2025年結束11年冠軍荒，再度封后",
    "city": "桃園"
  },
  {
    "title": "朱天文：1956台北，《三三集刊》到《悲情城市》威尼斯金獅",
    "lat": 25.037868,
    "lng": 121.559212,
    "category": "people",
    "region": "north",
    "link": "/people/%E6%9C%B1%E5%A4%A9%E6%96%87",
    "lang": "zh-TW",
    "desc": "1956年生於台北，父朱西甯。1977年與胡蘭成等創辦《三三集刊》。長期擔任侯孝賢御用編劇，代表作《悲情城市》1989年獲威尼斯金獅獎。1994年《荒人手記》獲時報文學獎首獎。編劇作品含《好男好女》《南國再見南國》。",
    "city": "台北"
  },
  {
    "title": "朱經武：1987突破液氮溫度，高溫超導Tc=93K的共同發現者",
    "lat": 23.005745,
    "lng": 120.217382,
    "category": "people",
    "region": "south",
    "link": "/people/%E6%9C%B1%E7%B6%93%E6%AD%A6",
    "lang": "zh-TW",
    "desc": "1941年生於湖南，台裔美籍物理學家。1987年1月與吳茂昆共同發現YBCO釔鋇銅氧化物Tc=93K，突破液氮溫度門檻，開啟高溫超導時代。2001-2009年任香港科大校長。2026年3月PNAS發表Tc=151K新突破，85歲仍活躍研究。",
    "city": "台南"
  },
  {
    "title": "李仙得：締約者與出賣者是同一個人",
    "lat": 22.011422,
    "lng": 120.739159,
    "category": "people",
    "region": "south",
    "link": "/people/%E6%9D%8E%E4%BB%99%E5%BE%97",
    "lang": "zh-TW",
    "desc": "1867年，美國商船羅發號在恆春半島船難，14人被排灣族殺害。美國領事李仙得八次來台交涉，跟原住民首領卓杞篤簽了一份沒有清政府參與的協議。然後他帶著對福爾摩沙的全部了解，跳槽到日本政府。五年後，日本用他的情報出兵台灣。",
    "city": "屏東"
  },
  {
    "title": "李昂：鹿港1952，《殺夫》打開台灣女性主義文學的開路者",
    "lat": 24.049142,
    "lng": 120.429436,
    "category": "people",
    "region": "central",
    "link": "/people/%E6%9D%8E%E6%98%82",
    "lang": "zh-TW",
    "desc": "1952年生於彰化鹿港，本名施淑端。1983年《殺夫》在聯合報連載，以家庭暴力題材震撼台灣文壇。1991年《迷園》。2004年獲法國藝術與文學勳章騎士勳位。作品譯成英、法、德、日等語言，是台灣最受國際關注的女性作家之一。",
    "city": "彰化"
  },
  {
    "title": "李智凱",
    "lat": 24.753779,
    "lng": 121.759233,
    "category": "people",
    "region": "north",
    "link": "/people/%E6%9D%8E%E6%99%BA%E5%87%B1",
    "lang": "zh-TW",
    "desc": "從《翻滾吧！男孩》的菜市場凱到奧運銀牌，台灣鞍馬王子十六年的翻滾人生",
    "city": "宜蘭"
  },
  {
    "title": "李洋",
    "lat": 25.027262,
    "lng": 121.566643,
    "category": "people",
    "region": "north",
    "link": "/people/%E6%9D%8E%E6%B4%8B",
    "lang": "zh-TW",
    "desc": "咬著牙拚過甲組的少年，現在咬著牙拚體邪：兩屆奧運羽球男雙金牌、史上最年輕部長、存款 3401 萬、債務 3638 萬、補頒一千萬獎金全捐",
    "city": "台北"
  },
  {
    "title": "李遠哲",
    "lat": 24.800877,
    "lng": 120.966928,
    "category": "people",
    "region": "north",
    "link": "/people/%E6%9D%8E%E9%81%A0%E5%93%B2",
    "lang": "zh-TW",
    "desc": "1986 年諾貝爾化學獎得主，以交叉分子束技術開創化學動力學新領域，台灣首位諾貝爾科學獎得主",
    "city": "新竹"
  },
  {
    "title": "杜聰明",
    "lat": 22.62132,
    "lng": 120.304479,
    "category": "people",
    "region": "south",
    "link": "/people/%E6%9D%9C%E8%81%B0%E6%98%8E",
    "lang": "zh-TW",
    "desc": "台灣第一位醫學博士，發明漸進斷癮法在17年間幫助11498人戒除鴉片，高雄醫學大學創辦人",
    "city": "高雄"
  },
  {
    "title": "林宥嘉：從 25 分滿分的〈Creep〉，到承認自己不需要完美的 17 年",
    "lat": 22.681378,
    "lng": 120.480326,
    "category": "people",
    "region": "south",
    "link": "/people/%E6%9E%97%E5%AE%A5%E5%98%89",
    "lang": "zh-TW",
    "desc": "2007 年 7 月 6 日，20 歲的林宥嘉以 Radiohead 的〈Creep〉拿下《超級星光大道》第一屆 25 分滿分冠軍。此後他三度叩關金曲歌王落空，2018 年起被腸躁症逼停六年。直到 2024 年《王 Love, Lord》親任四位製作人之一，他才說出：「過去的我很刁鑽，總希望拿出最好的表現。」17 年才學會的一件事，是不追著完美跑。",
    "city": "屏東"
  },
  {
    "title": "林強：從〈向前走〉月台到《刺客聶隱娘》坎城，台語搖滾叛逃者的三十年",
    "lat": 25.036186,
    "lng": 121.569537,
    "category": "people",
    "region": "north",
    "link": "/people/%E6%9E%97%E5%BC%B7",
    "lang": "zh-TW",
    "desc": "1990 年 12 月 7 日，26 歲的彰化人林志峰用《向前走》把台語歌從悲情調變成搖滾，三年後他幾乎不再唱歌。從《南國再見，南國》到《刺客聶隱娘》，四座金馬、坎城電影原聲帶獎、2018 年國家文藝獎，他用三十年把巨星身份折疊起來，成為侯孝賢和賈樟柯背後那個按合成器的人。",
    "city": "台北"
  },
  {
    "title": "林書豪",
    "lat": 25.004847,
    "lng": 121.462676,
    "category": "people",
    "region": "north",
    "link": "/people/%E6%9E%97%E6%9B%B8%E8%B1%AA",
    "lang": "zh-TW",
    "desc": "高中州冠軍沒拿到獎學金，選秀沒人要，15天內被裁兩次——然後他讓全世界認識了「林來瘋」",
    "city": "新北"
  },
  {
    "title": "林琪兒：從台北出生到近地軌道，那位在太空吹風笛的台裔醫師",
    "lat": 25.026746,
    "lng": 121.557785,
    "category": "people",
    "region": "north",
    "link": "/people/%E6%9E%97%E7%90%AA%E5%85%92",
    "lang": "zh-TW",
    "desc": "1973 年出生於台北的林琪兒（Kjell N. Lindgren），是首位台灣出生的 NASA 太空人。空軍官校畢業後進入飛行訓練時一紙氣喘誤診讓他告別飛行員之路，11 年後重測推翻診斷，他從 3,565 人裡被選為 NASA 第 20 屆太空人 9 人之一，累計在軌道停留 312 天。2026 年 4 月他以「Freedom 250」返台，在總統府說：「我的 NASA 太空人生涯始於台灣。」",
    "city": "台北"
  },
  {
    "title": "林義傑",
    "lat": 25.028583,
    "lng": 121.563803,
    "category": "people",
    "region": "north",
    "link": "/people/%E6%9E%97%E7%BE%A9%E5%82%91",
    "lang": "zh-TW",
    "desc": "從被田徑隊拒絕的瘦小孩，到徒步橫越撒哈拉沙漠創造歷史的極地跑者",
    "city": "台北"
  },
  {
    "title": "林義雄",
    "lat": 24.758092,
    "lng": 121.752046,
    "category": "people",
    "region": "north",
    "link": "/people/%E6%9E%97%E7%BE%A9%E9%9B%84",
    "lang": "zh-TW",
    "desc": "民主運動先驅，林宅血案受害者，反核四運動領袖",
    "city": "宜蘭"
  },
  {
    "title": "林良：淺是淺，但是要淺而有味",
    "lat": 25.032098,
    "lng": 121.566788,
    "category": "people",
    "region": "north",
    "link": "/people/%E6%9E%97%E8%89%AF",
    "lang": "zh-TW",
    "desc": "從 1944 年九龍江畔失去父親的長子，到 2019 年 12 月在睡夢中離世的 95 歲爺爺。林良用 73 年證明：孩子值得被當成完整的讀者。",
    "city": "台北"
  },
  {
    "title": "柯文哲",
    "lat": 25.027551,
    "lng": 121.567913,
    "category": "people",
    "region": "north",
    "link": "/people/%E6%9F%AF%E6%96%87%E5%93%B2",
    "lang": "zh-TW",
    "desc": "從葉克膜 SOP 建立者到第三勢力旗手，台灣第一位無黨籍台北市長的跌宕政治史",
    "city": "台北"
  },
  {
    "title": "楊丞琳：從天氣女團 Rainie 到自製〈曖昧 2025〉的製作人欄",
    "lat": 25.040944,
    "lng": 121.569074,
    "category": "people",
    "region": "north",
    "link": "/people/%E6%A5%8A%E4%B8%9E%E7%90%B3",
    "lang": "zh-TW",
    "desc": "2025 年 9 月 9 日，楊丞琳在《曖昧》原版 20 週年的同月同日，發行自己製作的〈曖昧 2025〉。這位從 2000 年 BMG 虛擬女團 4 in Love 出道、2005 年〈曖昧〉紅遍華語圈、2012 年紅磡倒吊三公尺演唱〈帶我走〉整臉微血管爆裂的女歌手，花了二十五年在每個舞台跟「被誰定義」協商——直到製作人那一欄寫下自己的名字。",
    "city": "台北"
  },
  {
    "title": "楊傳廣：台東部落、羅馬銀牌，9121分世界紀錄的亞洲鐵人",
    "lat": 22.759407,
    "lng": 121.136159,
    "category": "people",
    "region": "east",
    "link": "/people/%E6%A5%8A%E5%82%B3%E5%BB%A3",
    "lang": "zh-TW",
    "desc": "1933年7月10日生於台東馬蘭阿美族部落，楊傳廣是台灣第一位奧運獎牌得主。1960年羅馬奧運十項全能以8334分奪銀，1963年以9121分刷新世界紀錄、撐竿跳4.83米迫使國際田聯修改計分標準。2007年1月27日於美國加州中風過世，享壽73歲。2025年4月，文化部列為國寶。",
    "city": "台東"
  },
  {
    "title": "楊德昌",
    "lat": 25.040686,
    "lng": 121.565666,
    "category": "people",
    "region": "north",
    "link": "/people/%E6%A5%8A%E5%BE%B7%E6%98%8C",
    "lang": "zh-TW",
    "desc": "台灣新電影運動核心人物，坎城最佳導演，都市疏離的詩人",
    "city": "台北"
  },
  {
    "title": "殷海光：在溫州街十八巷把自由主義種進台灣的哲學家",
    "lat": 25.033384,
    "lng": 121.567084,
    "category": "people",
    "region": "north",
    "link": "/people/%E6%AE%B7%E6%B5%B7%E5%85%89",
    "lang": "zh-TW",
    "desc": "1949 年從南京飛抵台北的湖北青年殷福生，以筆名殷海光成為《自由中國》主筆、台大哲學系教授。他用邏輯實證論教學生「思想免疫」，用社論質問蔣介石第三任連任，被軟禁於溫州街，1969 年 49 歲胃癌病逝，留下台灣自由主義最完整的精神原型。",
    "city": "台北"
  },
  {
    "title": "江振誠",
    "lat": 25.031158,
    "lng": 121.566243,
    "category": "people",
    "region": "north",
    "link": "/people/%E6%B1%9F%E6%8C%AF%E8%AA%A0",
    "lang": "zh-TW",
    "desc": "從淡水商工到世界第14、塞舌爾的頓悟到台北大直的回歸，André Chiang 以八角哲學在國際餐飲界為台灣廚師確立了一個新座標",
    "city": "台北"
  },
  {
    "title": "沈伯洋：他研究中國認知戰，後來中國把他畫在衛星圖上",
    "lat": 25.035765,
    "lng": 121.561341,
    "category": "people",
    "region": "north",
    "link": "/people/%E6%B2%88%E4%BC%AF%E6%B4%8B",
    "lang": "zh-TW",
    "desc": "二〇二一年沈伯洋與戰略學者何澄輝共同創辦黑熊學院，曹興誠捐六億支持，目標三年訓練三百萬民防志士。二〇二四年二月以民進黨不分區立委身份入國會。二〇二五年十月二十八日，他成為首位被中國以「分裂國家罪」立案偵查的台灣民選政治人物，央視配上「起底」專題警告「下一個就是你」。二〇二六年元旦中國微博帳號用商用衛星公布他在台北的住家與工作地座標；情人節他在飛往法國的飛機上度過。",
    "city": "台北"
  },
  {
    "title": "波特王 — 從「撩妹」娛樂到「粉紅」獵手，在法律與主權間掙扎的數位博弈者",
    "lat": 22.621759,
    "lng": 120.307605,
    "category": "people",
    "region": "south",
    "link": "/people/%E6%B3%A2%E7%89%B9%E7%8E%8B",
    "lang": "zh-TW",
    "desc": "波特王（陳加晉）的職業生涯演化，紀錄了台灣創作者從兩岸商業紅利的收割者，轉型為數位主權防禦者的過程，同時揭示了創作者與資本體系長期糾纏的法律、產權與財務複雜性。",
    "city": "高雄"
  },
  {
    "title": "洪醒夫：提早隕落的鄉土文學巨星",
    "lat": 24.081033,
    "lng": 120.531494,
    "category": "people",
    "region": "central",
    "link": "/people/%E6%B4%AA%E9%86%92%E5%A4%AB",
    "lang": "zh-TW",
    "desc": "1949年出生於彰化二林貧苦農家的洪醒夫，18歲發表第一篇小說，33歲因車禍離世前以小學教師身份創作鄉土文學，用短短15年寫出《黑面慶仔》、《吾土》、《散戲》等經典，捕捉台灣農村從農業到工商轉型的真實面貌，被文友戲稱「洪醒夫斯基」，成為戰後台灣文學不可磨滅的田莊之聲。",
    "city": "彰化"
  },
  {
    "title": "王建民：建興國中出發，伸卡球讓洋基贏了兩個賽季",
    "lat": 22.99854,
    "lng": 120.221607,
    "category": "people",
    "region": "south",
    "link": "/people/%E7%8E%8B%E5%BB%BA%E6%B0%91",
    "lang": "zh-TW",
    "desc": "1980年生於台南，王建民是台灣旅美棒球史上最具代表性的投手。就讀台南建興國中，2005年首登大聯盟舞台。2006年以19勝6敗與桑塔納並列美聯勝投王（亞洲第一位），2007年再繳19勝7敗。2008年6月跑壘受傷後生涯逆轉。2018年紀錄片《後勁：王建民》上映；2023年WBC、2024年WBSC 12強賽出任中華隊牛棚教練。",
    "city": "台南"
  },
  {
    "title": "王永慶：米店、六輕二十年奮戰，逝後的那場爭產大戲",
    "lat": 25.037679,
    "lng": 121.567651,
    "category": "people",
    "region": "north",
    "link": "/people/%E7%8E%8B%E6%B0%B8%E6%85%B6",
    "lang": "zh-TW",
    "desc": "1917年1月18日生於台北新店，王永慶15歲輟學借錢開米店，1954年創立台灣塑膠。1973年向政府提案六輕，奮戰近二十年後方獲批，1998年雲林麥寮正式量產。2008年10月15日於美國逝世，享壽92歲，身後留下跨越十餘年的家族爭產糾紛。",
    "city": "台北"
  },
  {
    "title": "王福瑞：從 200 份影印雜誌到 12 聲道喇叭的三十年",
    "lat": 25.02565,
    "lng": 121.569942,
    "category": "people",
    "region": "north",
    "link": "/people/%E7%8E%8B%E7%A6%8F%E7%91%9E",
    "lang": "zh-TW",
    "desc": "1993 年，24 歲的王福瑞用程式設計師薪水，在自家影印機印 200 份《NOISE》實驗音樂雜誌，售價 15 到 30 元一本。三十年後（2020）他在就在藝術空間掛起多面體 12 聲道全指向喇叭，作品是大病過後身體裡人工血管的細碎頻率。從一個人的 DIY 廠牌到美術館的展廳，他用三十年讓「噪音」這個詞從邊緣 fanzine 圈的暗號，走進台灣聲音藝術的合法語彙。",
    "city": "台北"
  },
  {
    "title": "田馥甄：S.H.E 千萬銷量之後，把偶像體制一件件丟掉的歌手",
    "lat": 24.803214,
    "lng": 120.970243,
    "category": "people",
    "region": "north",
    "link": "/people/%E7%94%B0%E9%A6%A5%E7%94%84",
    "lang": "zh-TW",
    "desc": "2010 年 9 月田馥甄發行首張個人專輯《To Hebe》時，海報文案寫「出道十年超級新人」——那年 S.H.E 已賣超過千萬張唱片。十一年後她在第 32 屆金曲獎舞台對媽媽喊「媽，我沒浪費水費，我拿到金曲獎了」。從新竹客家小鎮到小巨蛋舞台，這位被華研唱片培養出的偶像花了二十五年，把代言、綜藝、中國市場、「文青歌后」標籤一件件主動退掉。",
    "city": "新竹"
  },
  {
    "title": "白先勇：《台北人》1971，到青春版牡丹亭二十年巡演",
    "lat": 25.031196,
    "lng": 121.567684,
    "category": "people",
    "region": "north",
    "link": "/people/%E7%99%BD%E5%85%88%E5%8B%87",
    "lang": "zh-TW",
    "desc": "1937年生於廣西桂林，白崇禧之子。1956年台大外文系，與王文興等人創辦《現代文學》。1971年《台北人》14篇短篇小說。1983年《孽子》。2003年啟動青春版《牡丹亭》，2004年4月首演，2024年迎接20周年。2003年獲國家文藝獎。",
    "city": "台北"
  },
  {
    "title": "盧廣仲：被公車輾過的三金天王",
    "lat": 23.002225,
    "lng": 120.223422,
    "category": "people",
    "region": "south",
    "link": "/people/%E7%9B%A7%E5%BB%A3%E4%BB%B2",
    "lang": "zh-TW",
    "desc": "2003 年台南男孩騎車買宵夜，公車輾過他的腿，粉碎性骨折。住院無聊，撿起表哥給的吉他。22 年後，他是台灣史上最年輕的三金大滿貫得主：金曲、金鐘、金馬，用一把吉他跟一雙斷過的腿走完的路。",
    "city": "台南"
  },
  {
    "title": "盧秀燕：從谷關空氣 1 萬瓶到華府軍購保險論的不敗女王",
    "lat": 24.145994,
    "lng": 120.676603,
    "category": "people",
    "region": "central",
    "link": "/people/%E7%9B%A7%E7%A7%80%E7%87%95",
    "lang": "zh-TW",
    "desc": "2018-12-25 她自掏腰包訂製 1 萬瓶玻璃罐裝「谷關空氣」分送觀禮市民，把競選口號裝進讀者手裡。8 年連選不敗、2 次台中市長、6 屆立委之後，2025 年 8 月朱立倫公開請她接黨主席，她說「越是困難的時候，媽媽會留在家」。但 2026 年 4 月最新民調，她的 2028 默認共主位置已被陳萬安以 25% 對 19.7% 超越。",
    "city": "台中"
  },
  {
    "title": "童子賢：台北工專出發，和碩成為蘋果最大代工夥伴",
    "lat": 25.025333,
    "lng": 121.56674,
    "category": "people",
    "region": "north",
    "link": "/people/%E7%AB%A5%E5%AD%90%E8%B3%A2",
    "lang": "zh-TW",
    "desc": "1960年6月25日生，童子賢台北工專（今北科大）電子科畢業，非台大電機。1988年加入華碩，2008年1月1日主導分拆，創立和碩聯合科技，成為蘋果、索尼、任天堂的代工廠。2019年投資誠品書店。2025年仍發表「核綠共存」能源政策主張。",
    "city": "台北"
  },
  {
    "title": "紀政：跑出10項世界紀錄，五十年後仍在為台灣正名奔跑",
    "lat": 24.802112,
    "lng": 120.965426,
    "category": "people",
    "region": "north",
    "link": "/people/%E7%B4%80%E6%94%BF",
    "lang": "zh-TW",
    "desc": "1944年3月15日生於新竹，紀政以「飛躍的羚羊」成為台灣田徑史上最傑出的女子選手。1968年墨西哥奧運，她在80公尺跨欄以10秒51奪銅，是台灣第一面女子奧運田徑獎牌；生涯共創下10項世界紀錄。退役後投身路跑推廣，年逾八旬的她至今仍活躍於台灣正名運動的現場。",
    "city": "新竹"
  },
  {
    "title": "羅大佑：放射科醫師出身，1982《之乎者也》到2025新專輯",
    "lat": 24.061146,
    "lng": 120.441012,
    "category": "people",
    "region": "central",
    "link": "/people/%E7%BE%85%E5%A4%A7%E4%BD%91",
    "lang": "zh-TW",
    "desc": "1954年7月20日生於台北。中國醫藥學院（現中醫大）約1980/81年畢業，曾任放射科醫師。1982年4月21日《之乎者也》首專輯，開啟華語流行音樂社會批判路線。2017年《家III》。2023《愛・河・人間》、2024《地球母親》、2025《季春四望夜雨愁》，70歲仍創作。",
    "city": "彰化"
  },
  {
    "title": "草東沒有派對：從陽明山草東街到兩座金曲最佳樂團的十二年",
    "lat": 25.158,
    "lng": 121.549,
    "category": "people",
    "region": "north",
    "link": "/people/%E8%8D%89%E6%9D%B1%E6%B2%92%E6%9C%89%E6%B4%BE%E5%B0%8D",
    "lang": "zh-TW",
    "desc": "2017 年金曲 28，一個自費壓 2,000 張 CD 的四人樂團壓倒性擊敗五月天拿下三座。他們消失了七年，橫跨鼓手凡凡 2021 年在防疫旅館過世與兩年沉默。2023 年用《瓦合》回歸，2024 金曲 35 拿下年度專輯 + 最佳華語 + 最佳樂團三冠，經紀人代領：「草東從來不只是站在舞台上的 4 個人。」",
    "city": "台北"
  },
  {
    "title": "莊智淵：六屆奧運，2013世界冠軍，那面差一步的奧運獎牌",
    "lat": 22.624659,
    "lng": 120.308859,
    "category": "people",
    "region": "south",
    "link": "/people/%E8%8E%8A%E6%99%BA%E6%B7%B5",
    "lang": "zh-TW",
    "desc": "1981年4月2日生，莊智淵是台灣桌球史上征戰最久的選手。從2000年雪梨到2024年巴黎，他連續六屆代表台灣出征奧運；2013年世乒賽與陳建安奪得男雙世界冠軍。奧運獎牌是生涯唯一的遺憾，最近那次在2012倫敦銅牌戰止步。退役後轉任中山大學體育副教授。",
    "city": "高雄"
  },
  {
    "title": "莊朱玉女：從碼頭工人的免費餐桌到賣掉七棟房的十元便當",
    "lat": 22.624327,
    "lng": 120.299445,
    "category": "people",
    "region": "south",
    "link": "/people/%E8%8E%8A%E6%9C%B1%E7%8E%89%E5%A5%B3",
    "lang": "zh-TW",
    "desc": "1951年，莊朱玉女在高雄港邊架起爐灶，為清苦的碼頭工人提供免費餐點。這位被譽為「窮人守護神」的阿嬤，在往後的五十年間，堅持以十元價格供應無限量自助餐，甚至不惜賣掉七棟房產支撐開銷，將「讓人吃飽」做成了一生的信仰。",
    "city": "高雄"
  },
  {
    "title": "葉國一：士林高商起家，打造半世紀代工帝國",
    "lat": 25.032282,
    "lng": 121.564727,
    "category": "people",
    "region": "north",
    "link": "/people/%E8%91%89%E5%9C%8B%E4%B8%80",
    "lang": "zh-TW",
    "desc": "1941年4月21日生，葉國一沒有大學學歷，從士林高商出發，1975年在士林創立英業達。從電子計算機起步，帶領公司成為全球頂尖的伺服器代工廠，供應Facebook、微軟、Google的雲端算力。2023年將董事長一職交棒次子葉力誠，退為集團會長。",
    "city": "台北"
  },
  {
    "title": "蔡健雅：四度金曲歌后，新加坡人怎麼把台灣變成主場",
    "lat": 25.036553,
    "lng": 121.570645,
    "category": "people",
    "region": "north",
    "link": "/people/%E8%94%A1%E5%81%A5%E9%9B%85",
    "lang": "zh-TW",
    "desc": "從 1996 年新加坡酒吧被鍵盤手叫閉嘴，到 2022 年第 33 屆金曲獎一晚拿四座，蔡健雅花了 26 年把自己活成華語樂壇唯一一個四度封后的紀錄保持人。她不是出生在台灣，但金曲獎、定居地、合作對象、最被傳唱的歌都長在台灣——一個外國藝人的本土認同，是 2006 年那次決定關掉華納合約、自己搬到台北、成立「天涯音樂工作室」的選擇。",
    "city": "台北"
  },
  {
    "title": "蔡明亮",
    "lat": 25.035935,
    "lng": 121.562105,
    "category": "people",
    "region": "north",
    "link": "/people/%E8%94%A1%E6%98%8E%E4%BA%AE",
    "lang": "zh-TW",
    "desc": "威尼斯金獅獎得主，馬來西亞華人，慢電影美學大師",
    "city": "台北"
  },
  {
    "title": "蔣中正",
    "lat": 25.031283,
    "lng": 121.52453,
    "category": "people",
    "region": "north",
    "link": "/people/%E8%94%A3%E4%B8%AD%E6%AD%A3",
    "lang": "zh-TW",
    "desc": "他的銅像正在被搬走，但他奠下的地基——無論你稱之為建設或枷鎖——還在撐著這座島的每一條路、每一間學校、每一次選舉。",
    "city": "台北"
  },