[
  {
    "title": "台灣官方網站資源：從25個網站到數位政府強國的30年奇蹟",
    "lat": 25.033,
    "lng": 121.565,
    "category": "about",
    "region": "north",
    "link": "/about/%E5%8F%B0%E7%81%A3%E5%AE%98%E6%96%B9%E7%B6%B2%E7%AB%99%E8%B3%87%E6%BA%90%E9%87%8D%E5%AF%AB",
    "lang": "zh-TW",
    "desc": "1996年，台灣為了參加網際網路世界博覽會，25個政府機關建置了第一批官方網站。30年後的今天，這座島嶼成為全球數位政府的典範——從網路報稅到單一入口網站，從開放資料到AI語料庫，探索台灣如何用官方網站寫下數位轉型的傳奇。",
    "city": "台北"
  },
  {
    "title": "台灣傳統藝術",
    "lat": 22.996,
    "lng": 120.161,
    "category": "art",
    "region": "south",
    "link": "/art/%E5%8F%B0%E7%81%A3%E5%82%B3%E7%B5%B1%E8%97%9D%E8%A1%93",
    "lang": "zh-TW",
    "desc": "21世紀最大的文化產業奇蹟：年產值千億的霹靂布袋戲帝國，如何從鄉間謝神小戲變成征服全球的文化軟實力？",
    "city": "台南"
  },
  {
    "title": "台灣原住民當代藝術",
    "lat": 25.037118,
    "lng": 121.565391,
    "category": "art",
    "region": "north",
    "link": "/art/%E5%8F%B0%E7%81%A3%E5%8E%9F%E4%BD%8F%E6%B0%91%E7%95%B6%E4%BB%A3%E8%97%9D%E8%A1%93",
    "lang": "zh-TW",
    "desc": "從傳統工藝到當代創作，探索台灣原住民藝術家如何在全球藝術舞台上發聲，重新定義原住民身份與當代藝術的對話",
    "city": "台北"
  },
  {
    "title": "台灣建築",
    "lat": 25.034857,
    "lng": 121.564982,
    "category": "art",
    "region": "north",
    "link": "/art/%E5%8F%B0%E7%81%A3%E5%BB%BA%E7%AF%89",
    "lang": "zh-TW",
    "desc": "從石板屋到摩天樓：一座島嶼的建築時光之旅",
    "city": "台北"
  },
  {
    "title": "台灣新媒體藝術",
    "lat": 25.033155,
    "lng": 121.561606,
    "category": "art",
    "region": "north",
    "link": "/art/%E5%8F%B0%E7%81%A3%E6%96%B0%E5%AA%92%E9%AB%94%E8%97%9D%E8%A1%93",
    "lang": "zh-TW",
    "desc": "從1980年代錄像先驅到威尼斯VR大獎，16位關鍵藝術家與40年數位藝術革命的完整脈絡。台灣如何用程式碼寫詩，在國際藝術版圖刻下自己的名字。",
    "city": "台北"
  },
  {
    "title": "台灣水彩畫的百年流變：從石川欽一郎到簡忠威的百年積累",
    "lat": 25.027994,
    "lng": 121.5717,
    "category": "art",
    "region": "north",
    "link": "/art/%E5%8F%B0%E7%81%A3%E6%B0%B4%E5%BD%A9%E7%95%AB%E7%9A%84%E7%99%BE%E5%B9%B4%E6%B5%81%E8%AE%8A",
    "lang": "zh-TW",
    "desc": "1907年石川欽一郎來台任教，種下台灣水彩百年的根。學生藍蔭鼎1929年入英國皇家水彩協會、1934年本土畫家自組台陽美術協會，戰後馬白水融合水墨與水彩、席德進記錄台灣老建築，1990年代三大協會並立接軌IWS國際水彩網路。今天，簡忠威以AWS與NWS雙重署名會員揚名國際。這條從殖民地師範教育到國際競賽主場的百年路，串聯了寫生傳統、師範體系與全球水彩社群；台灣水彩的活力，正是官辦與在野、本土與域外、傳統與競賽並行積累的張力。",
    "city": "台北"
  },
  {
    "title": "台灣現代詩",
    "lat": 24.081,
    "lng": 120.539,
    "category": "art",
    "region": "central",
    "link": "/art/%E5%8F%B0%E7%81%A3%E7%8F%BE%E4%BB%A3%E8%A9%A9",
    "lang": "zh-TW",
    "desc": "從三個書房走出的現代主義實驗，如何意外催生最鄉土的詩歌革命",
    "city": "彰化"
  },
  {
    "title": "台灣當代雕塑發展",
    "lat": 25.035043,
    "lng": 121.56221,
    "category": "art",
    "region": "north",
    "link": "/art/%E5%8F%B0%E7%81%A3%E7%95%B6%E4%BB%A3%E9%9B%95%E5%A1%91%E7%99%BC%E5%B1%95",
    "lang": "zh-TW",
    "desc": "從楊英風、朱銘到新世代，探索台灣雕塑藝術的演變軌跡與創作精神",
    "city": "台北"
  },
  {
    "title": "台灣策展人與藝術文化建構",
    "lat": 25.027674,
    "lng": 121.566419,
    "category": "art",
    "region": "north",
    "link": "/art/%E5%8F%B0%E7%81%A3%E7%AD%96%E5%B1%95%E4%BA%BA%E8%88%87%E8%97%9D%E8%A1%93%E6%96%87%E5%8C%96%E5%BB%BA%E6%A7%8B",
    "lang": "zh-TW",
    "desc": "從 1990 年代初的機構萌芽到今日的國際平台，台灣策展人如何在全球化浪潮中建構本土藝術論述，又如何在國際雙年展體系中找到自己的聲音？一段關於文化身份認同與專業建制的 30 年演化史。",
    "city": "台北"
  },
  {
    "title": "台灣藝術教育與學院發展",
    "lat": 22.999,
    "lng": 120.227,
    "category": "art",
    "region": "south",
    "link": "/art/%E5%8F%B0%E7%81%A3%E8%97%9D%E8%A1%93%E6%95%99%E8%82%B2%E8%88%87%E5%AD%B8%E9%99%A2%E7%99%BC%E5%B1%95",
    "lang": "zh-TW",
    "desc": "從師範體系到專業藝術大學，台灣藝術教育的體制變革與人才培育",
    "city": "台南"
  },
  {
    "title": "戰後台灣文學：從不能說的事，學會怎麼說（1945-1987）",
    "lat": 22.661,
    "lng": 121.497,
    "category": "art",
    "region": "east",
    "link": "/art/%E6%88%B0%E5%BE%8C%E5%8F%B0%E7%81%A3%E6%96%87%E5%AD%B8",
    "lang": "zh-TW",
    "desc": "1945 年 8 月，葉石濤 20 歲從日本陸軍退伍回到台南，打開稿紙一個中文字都寫不出來。這張白紙要等他 42 年。中間是失語、入獄、論戰、學會迂迴。1987 年 2 月，他出了一本 232 頁的書，書名只有「台灣」兩個字。",
    "city": "台東"
  },
  {
    "title": "數位荒原：一個沒商業模式的網路藝評平台怎麼活了 12 年",
    "lat": 25.036476,
    "lng": 121.572568,
    "category": "art",
    "region": "north",
    "link": "/art/%E6%95%B8%E4%BD%8D%E8%8D%92%E5%8E%9F",
    "lang": "zh-TW",
    "desc": "2011 年 11 月，鄭文琦在台北一個叫「在地實驗」的舊媒體機構辦了一個沒紙本、沒廣告、沒訂閱費的網路書寫計劃。12 年後它累積 56 期主題、384 篇文章、31 集 podcast、10 冊《群島資料庫》。同期同類型「無紙媒母體 + 無實體空間 + 個人主編 driven」三條件齊備的中文藝評平台沒有同期存活案例。它撐下來靠的是三層 quiet infrastructure 精細疊合：機構母體承接基本成本、公部門專案補單期內容、編輯個人 12 年勞動補剩下的 gap。",
    "city": "台北"
  },
  {
    "title": "新生態藝術環境：1992 年永福路那棟四百坪老屋，跑在補助結構前面的七年",
    "lat": 23.002786,
    "lng": 120.234692,
    "category": "art",
    "region": "south",
    "link": "/art/%E6%96%B0%E7%94%9F%E6%85%8B%E8%97%9D%E8%A1%93%E7%92%B0%E5%A2%83",
    "lang": "zh-TW",
    "desc": "1992 年 6 月，杜昭賢在台南永福路一棟四百多坪老建築開了「新生態藝術環境」。國藝會還沒成立，南藝大還沒開校，文建會「閒置空間再利用」政策還沒上線。它撐了七年，到 1999 年熄燈時，台灣當代藝術的機構神經系統剛好開始長出來。",
    "city": "台南"
  },
  {
    "title": "林經堯：從太極雲手到演算法，他用「存在卻看不見的」作答",
    "lat": 22.627,
    "lng": 120.301,
    "category": "art",
    "region": "south",
    "link": "/art/%E6%9E%97%E7%B6%93%E5%A0%AF",
    "lang": "zh-TW",
    "desc": "出生於高雄，台北藝術大學音樂作曲學士、新媒體藝術碩士，台灣大學資訊網路與多媒體博士，巴黎高等美術學院博士後。曾任清華大學、南藝大教授，C-LAB 臺灣聲響實驗室總監（2019），現任台大 D-School 創新領域學士學程專案助理教授。2022 年以《Metaphysics》登上 Art Blocks（200 版）、《Mythologic》在香港巴塞爾互動鑄造展出，是 FAB DAO 百岳計畫《秘境》系列的生成藝術家。他的創作核心命題十五年沒變過：「世界上許多事物是可感知但不可見的。」",
    "city": "高雄"
  },
  {
    "title": "王新仁（阿亂）：用程式碼生成山水、把公益寫進合約的生成藝術家",
    "lat": 25.02673,
    "lng": 121.571379,
    "category": "art",
    "region": "north",
    "link": "/art/%E7%8E%8B%E6%96%B0%E4%BB%81",
    "lang": "zh-TW",
    "desc": "1982 年生於台中，台北藝術大學新媒體藝術碩士。2021 年 8 月 22 日，他的《Good Vibrations》成為首位登上 Art Blocks 的臺灣藝術家作品，1,024 份 NFT 一小時內售罄。隔年他加入 FAB DAO《百岳計畫》六人陣容，打造亞洲第一個把公益寫進智能合約的 NFT 永續分潤結構。他的創作橫跨 Art Blocks、Verse.works、fxhash、Tezos，在 Art Basel Hong Kong 展《Chaos Culture》、與 C-LAB 合作沉浸式聲響《好抖》、Polypaths 系列由國立臺灣博物館典藏，2026 年最新作品 inkField 透過 Claude Code 協作開發，把人類的猶豫與停頓留在生成系統裡。",
    "city": "台北"
  },
  {
    "title": "王連晟（蝦爸）：讓 23 台機器同時翻《論語》的台灣聲音裝置藝術家",
    "lat": 25.033538,
    "lng": 121.559489,
    "category": "art",
    "region": "north",
    "link": "/art/%E7%8E%8B%E9%80%A3%E6%99%9F",
    "lang": "zh-TW",
    "desc": "1985 年生於台北，東華資工系、北藝大科技藝術所出身。2017 年他以《閱讀計畫》（23 台自動翻書機械同時朗讀《論語》）在倫敦拿下流明獎（Lumen Prize）雕塑類首獎，隔年再拿台北美術獎首獎。他是台灣聲音藝術團體 i/O Lab 成員、失聲祭 2009-2010 主理人、FAB DAO 百岳計畫六位藝術家之一，現任北藝大新媒體藝術系助理教授。從 2022 年北美館《混沌邊界》五組自動運行裝置，到 2025 年關渡美術館《機器之後》用佛像、基督像、道教神祇的自動化平台審問 AI 倫理，王連晟是把演算法、機械、聲音三條線寫進同一部當代聲音藝術史的台灣創作者。",
    "city": "台北"
  },
  {
    "title": "台灣當代藝術",
    "lat": 25.040671,
    "lng": 121.570884,
    "category": "art",
    "region": "north",
    "link": "/art/%E7%95%B6%E4%BB%A3%E8%97%9D%E8%A1%93",
    "lang": "zh-TW",
    "desc": "從北美館到威尼斯雙年展台灣館，台灣當代藝術在全球舞台的獨特位置",
    "city": "台北"
  },
  {
    "title": "紀柏豪：從經濟學走進聲響的人，用演算法追問一件事——你到底聽進去了嗎",
    "lat": 25.037292,
    "lng": 121.567358,
    "category": "art",
    "region": "north",
    "link": "/art/%E7%B4%80%E6%9F%8F%E8%B1%AA",
    "lang": "zh-TW",
    "desc": "紀柏豪（Pohao Chi），1989 年生，聲音藝術家、作曲家、策展人。台大經濟系畢業，赴倫敦金匠學院取得音樂碩士；2021 年以 MIT Art, Culture and Technology 碩士身份拿下 Harold and Arlene Schnitzer Prize 視覺藝術首獎。2014 年同時入選台北美術獎、獲國美館贊助赴 V2 鹿特丹駐村、獲選雲門「流浪者計劃」；2015 年沿河西走廊跨越一千多公里，2017 年創立融聲創意 Zone Sound Creative。2025 年於 C-LAB DIVERSONICS 發表《朗誦者 2.0》，並以《水景迴路》入選 Ars Electronica 2025 Polyphony 台灣館；2026 年 3 月參與巴黎 IRCAM Forum Workshops，同年 4 月《Life in Motion》在洛杉磯 The Music Center 展出。他用演算法、GPS、AI 合成聲音量測世界，卻始終追問同一件事：「聽」這個行為還有沒有自己的意志。",
    "city": "台北"
  },
  {
    "title": "謝德慶：把 14 年非法身分活成一件行為藝術的台灣藝術家",
    "lat": 22.682,
    "lng": 120.484,
    "category": "art",
    "region": "south",
    "link": "/art/%E8%AC%9D%E5%BE%B7%E6%85%B6",
    "lang": "zh-TW",
    "desc": "1978 年紐約 Tribeca，他自願走進自己釘的木籠關了一年，不說話、不讀書、不寫字。接下來五年他用打卡、繩子、街頭流浪把時間變成作品；之後 13 年做藝術但不公開。謝德慶從屏東南州出發，1974 年跳船成為紐約非法移民整整 14 年。當其他藝術家畫自由，他選擇用囚禁證明時間本身就是藝術。",
    "city": "屏東"
  },
  {
    "title": "造山者：世紀的賭注 — 一部沒張忠謀的 TSMC 史詩，從新竹拍到普渡",
    "lat": 24.804,
    "lng": 120.969,
    "category": "art",
    "region": "north",
    "link": "/art/%E9%80%A0%E5%B1%B1%E8%80%85%E4%B8%96%E7%B4%80%E7%9A%84%E8%B3%AD%E6%B3%A8",
    "lang": "zh-TW",
    "desc": "2025 年 6 月某個傍晚，84 歲的張忠謀夫婦自費買了兩張票走進信義威秀。電影裡沒有他正面受訪的鏡頭——他正在寫自傳下冊。蕭菊貞花五年訪了 80 多位前輩，從小欣欣豆漿店 1974 年那場早餐會報拍到 2025 年魏哲家進白宮，《造山者：世紀的賭注》（A Chip Odyssey）成為台灣紀錄片影史前五，2026 年走進普渡、威斯康辛、密西根三所 CHIPS Act 投資重鎮的大學講堂。",
    "city": "新竹"
  },
  {
    "title": "金馬賓館當代美術館",
    "lat": 22.620488,
    "lng": 120.305758,
    "category": "art",
    "region": "south",
    "link": "/art/%E9%87%91%E9%A6%AC%E8%B3%93%E9%A4%A8%E7%95%B6%E4%BB%A3%E7%BE%8E%E8%A1%93%E9%A4%A8",
    "lang": "zh-TW",
    "desc": "一座見證離別與重逢的冷戰軍事驛站，沉睡二十年後被一對父女喚醒，成為《孤獨星球》推薦的高雄首選美術館。",
    "city": "高雄"
  },
  {
    "title": "鶯歌陶瓷博物館：清水模裡的百年窯業",
    "lat": 25.012,
    "lng": 121.465,
    "category": "art",
    "region": "north",
    "link": "/art/%E9%B6%AF%E6%AD%8C%E9%99%B6%E7%93%B7%E5%8D%9A%E7%89%A9%E9%A4%A8",
    "lang": "zh-TW",
    "desc": "2000 年 11 月，台灣第一座陶瓷專業博物館在新北市鶯歌區開館，由簡學義設計，以「土、水、火、風」四元素為理念。這座清水模建築把鶯歌從窯業小鎮重新定位為陶藝殿堂，2004 年起的台灣國際陶藝雙年展讓在地工藝接軌全球。",
    "city": "新北"
  },
  {
    "title": "人間雜誌",
    "lat": 25.031462,
    "lng": 121.569692,
    "category": "culture",
    "region": "north",
    "link": "/culture/%E4%BA%BA%E9%96%93%E9%9B%9C%E8%AA%8C",
    "lang": "zh-TW",
    "desc": "47 期，四年，一場用攝影和文字發動的安靜革命——台灣報導文學的起點",
    "city": "台北"
  },
  {
    "title": "伊斯蘭教在台灣：從泉州郭姓祖先到三十萬移工的信仰拼圖",
    "lat": 25.037518,
    "lng": 121.558838,
    "category": "culture",
    "region": "north",
    "link": "/culture/%E4%BC%8A%E6%96%AF%E8%98%AD%E6%95%99%E5%9C%A8%E5%8F%B0%E7%81%A3",
    "lang": "zh-TW",
    "desc": "2025年台灣穆斯林人口突破30萬，這座島嶼的伊斯蘭印記橫跨四百年。從鹿港郭厝的祭祖禁忌，到台北車站黑白格大廳的開齋盛會，台灣正經歷一場從「隱藏祖源」到「異鄉故鄉」的信仰重構。",
    "city": "台北"
  },
  {
    "title": "兩廳院：從威權符號到全民藝文殿堂的轉型之路",
    "lat": 25.036,
    "lng": 121.522,
    "category": "culture",
    "region": "north",
    "link": "/culture/%E5%85%A9%E5%BB%B3%E9%99%A2",
    "lang": "zh-TW",
    "desc": "1987年落成時，兩廳院是紀念蔣中正的宮殿式建築，鐵柵門把市民擋在外頭。2003年朱宗慶拆了那道門，2004年成為台灣第一個行政法人。荷蘭Flentrop管風琴4,172根音管埋在牆後，藝術總監劉怡汝說藝文場館要看見「看不見的障礙」。",
    "city": "台北"
  },
  {
    "title": "台灣原住民神話：從洪水到創世的口傳史詩",
    "lat": 23.47,
    "lng": 120.957,
    "category": "culture",
    "region": "central",
    "link": "/culture/%E5%8E%9F%E4%BD%8F%E6%B0%91%E7%A5%9E%E8%A9%B1",
    "lang": "zh-TW",
    "desc": "台灣原住民神話不僅是古老故事，更是族群記憶與文化傳承的活化石，承載著與自然共存的智慧與生命觀。",
    "city": "南投"
  },
  {
    "title": "台灣傳統工藝與無形文化資產：制度承認來了，學徒卻沒了",
    "lat": 24.414,
    "lng": 120.758,
    "category": "culture",
    "region": "central",
    "link": "/culture/%E5%8F%B0%E7%81%A3%E5%82%B3%E7%B5%B1%E5%B7%A5%E8%97%9D%E8%88%87%E7%84%A1%E5%BD%A2%E6%96%87%E5%8C%96%E8%B3%87%E7%94%A2",
    "lang": "zh-TW",
    "desc": "2022 年 12 月，文化部把高雄 87 歲的土水司阜蘇清良列為「人間國寶」，半年後他過世。台灣 2005 年才把「重要傳統工藝保存者」寫進文資法，比日本晚 50 年，比韓國晚 43 年。制度終於就位時，學徒制早在 1970-80 年代工業化裡崩塌——600 多位傳統匠師裡，50 歲以下「只是少數」。名單越長，能教的人越少。",
    "city": "苗栗"
  },
  {
    "title": "台灣原住民族16族文化地圖",
    "lat": 22.033,
    "lng": 121.549,
    "category": "culture",
    "region": "east",
    "link": "/culture/%E5%8F%B0%E7%81%A3%E5%8E%9F%E4%BD%8F%E6%B0%91%E6%97%8F16%E6%97%8F%E6%96%87%E5%8C%96%E5%9C%B0%E5%9C%96",
    "lang": "zh-TW",
    "desc": "「16」不是自然生成的數字，是談判的結果。從21萬阿美族到441人的卡那卡那富族，台灣原住民族的文化厚度遠超過任何一份官方名冊。",
    "city": "台東"
  },
  {
    "title": "台灣婚喪喜慶與人生禮俗",
    "lat": 23.003101,
    "lng": 120.232844,
    "category": "culture",
    "region": "south",
    "link": "/culture/%E5%8F%B0%E7%81%A3%E5%A9%9A%E5%96%AA%E5%96%9C%E6%85%B6%E8%88%87%E4%BA%BA%E7%94%9F%E7%A6%AE%E4%BF%97",
    "lang": "zh-TW",
    "desc": "從訂婚十二禮到辦桌文化，探索台灣人生禮俗如何在傳統與現代間找到平衡",
    "city": "台南"
  },
  {
    "title": "台灣宗教信仰：在恐懼裡長出的信仰帝國",
    "lat": 25.039488,
    "lng": 121.55905,
    "category": "culture",
    "region": "north",
    "link": "/culture/%E5%8F%B0%E7%81%A3%E5%AE%97%E6%95%99%E8%88%87%E5%AF%BA%E5%BB%9F%E6%96%87%E5%8C%96",
    "lang": "zh-TW",
    "desc": "全世界廟宇密度最高、宗教自由排名亞洲第二的島嶼，最大宗的兩個信仰——王爺與媽祖——歷史起源都跟瘟疫和死亡有關。從 17 世紀軍事移民帶神像渡黑水溝，到 2025 年自由度報告的 94 分；從 1953 一貫道被查禁、1987 解嚴第一個合法化，到四大佛教山頭跟長老教會在政教關係上各走各的路——台灣的信仰不在經文裡，在轉角的香火中。",
    "city": "台北"
  },
  {
    "title": "台灣廟會與陣頭文化：信仰密度與在地創新的雙軌運動",
    "lat": 22.998344,
    "lng": 120.231667,
    "category": "culture",
    "region": "south",
    "link": "/culture/%E5%8F%B0%E7%81%A3%E5%BB%9F%E6%9C%83%E8%88%87%E9%99%A3%E9%A0%AD%E6%96%87%E5%8C%96",
    "lang": "zh-TW",
    "desc": "台灣12,000間寺廟形成全球最高的信仰密度。大甲媽遶境九天八夜約340公里，白沙屯媽路線由鑾轎自行決定；八家將由日治後期皇民化運動（1937起）整理衝擊，戰後復興傳播全台；電音三太子2000年代初以現代電音重塑神明形象。陣頭文化的張力：官將首新莊系統與八家將台南系統並存，四大民俗（大甲媽/白沙屯媽/東港王船祭/鹽水蜂炮/頭城搶孤/雞籠中元祭）各具地方特色，廟會密度不只是宗教現象，更是台灣在地認同最具象化的表現形式。",
    "city": "台南"
  },
  {
    "title": "台灣感性：韓國人眼中的台式美學",
    "lat": 25.057,
    "lng": 121.51,
    "category": "culture",
    "region": "north",
    "link": "/culture/%E5%8F%B0%E7%81%A3%E6%84%9F%E6%80%A7",
    "lang": "zh-TW",
    "desc": "兩個高雄人花十年拍下兩千種鐵窗花，韓國人花五年把它拍成一個文化現象——「대만감성」如何讓台灣的日常街景成為亞洲最迷人的美學符號",
    "city": "台北"
  },
  {
    "title": "台灣教會公報：一份活了一百四十年的報紙，和它被沒收的那一天",
    "lat": 22.996332,
    "lng": 120.224175,
    "category": "culture",
    "region": "south",
    "link": "/culture/%E5%8F%B0%E7%81%A3%E6%95%99%E6%9C%83%E5%85%AC%E5%A0%B1",
    "lang": "zh-TW",
    "desc": "1885年，英國宣教師巴克禮在台南用白話字印了台灣第一份報紙。這份報紙被日本政府停刊過、被國民黨禁止使用母語、1987年因報導228事件遭警備總部整批扣押。每一次被壓制，它都活了回來。2025年它滿140歲，副刊上在討論生成式AI。",
    "city": "台南"
  },
  {
    "title": "台灣文化創意園區發展",
    "lat": 22.628674,
    "lng": 120.302004,
    "category": "culture",
    "region": "south",
    "link": "/culture/%E5%8F%B0%E7%81%A3%E6%96%87%E5%8C%96%E5%89%B5%E6%84%8F%E5%9C%92%E5%8D%80%E7%99%BC%E5%B1%95",
    "lang": "zh-TW",
    "desc": "從舊建築活化到創意聚落，台灣文化創意園區的發展歷程與創新模式",
    "city": "高雄"
  },
  {
    "title": "台灣殯葬文化與生死觀",
    "lat": 25.027117,
    "lng": 121.566604,
    "category": "culture",
    "region": "north",
    "link": "/culture/%E5%8F%B0%E7%81%A3%E6%AE%AF%E8%91%AC%E6%96%87%E5%8C%96%E8%88%87%E7%94%9F%E6%AD%BB%E8%A7%80",
    "lang": "zh-TW",
    "desc": "從孝女白琴的哭聲到詠愛園的樹葬——台灣人花了五十年從土葬走向火葬，又花十年從靈骨塔走向一棵樹下。",
    "city": "台北"
  },
  {
    "title": "台灣獸迷文化",
    "lat": 22.628124,
    "lng": 120.294154,
    "category": "culture",
    "region": "south",
    "link": "/culture/%E5%8F%B0%E7%81%A3%E7%8D%B8%E8%BF%B7%E6%96%87%E5%8C%96",
    "lang": "zh-TW",
    "desc": "2015 年，台灣第一場獸迷大會只來了約 50 人，獸裝師不到 10 個。十年後，獸無限單場 3,251 人、689 套獸裝同台、慈善募款近百萬元。台灣獸迷從撥接時代的 BBS 討論，長成了亞洲最具組織力的擬人化動物愛好者社群。",
    "city": "高雄"
  },
  {
    "title": "台灣老街文化與商業街區",
    "lat": 25.109,
    "lng": 121.845,
    "category": "culture",
    "region": "north",
    "link": "/culture/%E5%8F%B0%E7%81%A3%E8%80%81%E8%A1%97%E6%96%87%E5%8C%96%E8%88%87%E5%95%86%E6%A5%AD%E8%A1%97%E5%8D%80",
    "lang": "zh-TW",
    "desc": "從清代港口繁華到日治巴洛克洋樓，台灣老街是一部用磚瓦寫成的庶民史",
    "city": "新北"
  },
  {
    "title": "黃金時代的餘韻：台灣茶文化的流變與工藝",
    "lat": 23.51,
    "lng": 120.7,
    "category": "culture",
    "region": "south",
    "link": "/culture/%E5%8F%B0%E7%81%A3%E8%8C%B6%E6%96%87%E5%8C%96",
    "lang": "zh-TW",
    "desc": "1930年代列強簽了限產協定把台灣排除在外，結果台灣紅茶趁勢暴衝——從329萬公斤到580萬。90年後，同一座島嶼每30分鐘開一家手搖飲店。",
    "city": "嘉義"
  },
  {
    "title": "台灣茶道與生活美學",
    "lat": 23.509124,
    "lng": 120.700827,
    "category": "culture",
    "region": "south",
    "link": "/culture/%E5%8F%B0%E7%81%A3%E8%8C%B6%E9%81%93%E8%88%87%E7%94%9F%E6%B4%BB%E7%BE%8E%E5%AD%B8",
    "lang": "zh-TW",
    "desc": "一隻蟲咬出的蜜香、一棟日式老屋裡的民主運動、一杯珍奶征服的全球市場——台灣茶文化如何從殖民遺產長成獨特的生活美學",
    "city": "嘉義"
  },
  {
    "title": "台灣街頭藝術與塗鴉文化",
    "lat": 25.038954,
    "lng": 121.558202,
    "category": "culture",
    "region": "north",
    "link": "/culture/%E5%8F%B0%E7%81%A3%E8%A1%97%E9%A0%AD%E8%97%9D%E8%A1%93%E8%88%87%E5%A1%97%E9%B4%89%E6%96%87%E5%8C%96",
    "lang": "zh-TW",
    "desc": "從地下塗鴉到合法彩繪，城市牆面如何成為台灣藝術家的創作舞台",
    "city": "台北"
  },
  {
    "title": "台灣製香文化與香腳原鄉",
    "lat": 23.48,
    "lng": 120.449,
    "category": "culture",
    "region": "south",
    "link": "/culture/%E5%8F%B0%E7%81%A3%E8%A3%BD%E9%A6%99%E6%96%87%E5%8C%96%E8%88%87%E9%A6%99%E8%85%B3%E5%8E%9F%E9%84%89",
    "lang": "zh-TW",
    "desc": "從嘉義雲霄社區的百年香腳技藝，到台灣遍布全島的製香產業——一門關於虔誠、手藝與堅持的古老行業",
    "city": "嘉義"
  },
  {
    "title": "台灣諧音禁忌文化：為什麼「四」讓整個社會跳過樓層？",
    "lat": 24.994,
    "lng": 121.301,
    "category": "culture",
    "region": "north",
    "link": "/culture/%E5%8F%B0%E7%81%A3%E8%AB%A7%E9%9F%B3%E7%A6%81%E5%BF%8C%E6%96%87%E5%8C%96",
    "lang": "zh-TW",
    "desc": "從醫院沒有四樓到車牌8888天價標售，台灣人對諧音的敏感程度堪稱世界之最",
    "city": "桃園"
  },
  {
    "title": "國立故宮博物院",
    "lat": 25.102,
    "lng": 121.549,
    "category": "culture",
    "region": "north",
    "link": "/culture/%E5%9C%8B%E7%AB%8B%E6%95%85%E5%AE%AE%E5%8D%9A%E7%89%A9%E9%99%A2",
    "lang": "zh-TW",
    "desc": "它是這座島嶼上最沈重的「行李」，也是最輕盈的「數位幻境」。從戰火中的木箱到 AI 算力下的像素，故宮正試圖在台北外雙溪與嘉義太保之間，定義什麼是「台灣的故宮」。",
    "city": "台北"
  },
  {
    "title": "客家文化與語言",
    "lat": 22.67547,
    "lng": 120.488768,
    "category": "culture",
    "region": "south",
    "link": "/culture/%E5%AE%A2%E5%AE%B6%E6%96%87%E5%8C%96%E8%88%87%E8%AA%9E%E8%A8%80",
    "lang": "zh-TW",
    "desc": "一群人在 1988 年把孫中山的照片戴上口罩遊行，只為了爭回說母語的權利——他們贏了，但語言還在消失",
    "city": "屏東"
  },
  {
    "title": "布袋戲：從廟埕禁令到《東離劍遊紀》的掌中宇宙",
    "lat": 23.709,
    "lng": 120.431,
    "category": "culture",
    "region": "central",
    "link": "/culture/%E5%B8%83%E8%A2%8B%E6%88%B2",
    "lang": "zh-TW",
    "desc": "1970年3月2日，黃俊雄的史豔文讓全台灣工廠怠工、學生蹺課，創下97%收視率；四年後政府以「妨害農工正常作息」為由禁播。這門在台灣歷經皇民化壓制、電視禁令和錄影帶革命的掌中藝術，最終以《東離劍遊紀》敲開了全球動漫市場。",
    "city": "雲林"
  },
  {
    "title": "擲筊：在 50% 的機率背後，聽見神明的聲音",
    "lat": 23.481631,
    "lng": 120.455892,
    "category": "culture",
    "region": "south",
    "link": "/culture/%E6%93%B2%E7%AD%8A",
    "lang": "zh-TW",
    "desc": "從嘉義竹頭筊職人黃奕薰的堅持，到屏東慈天宮 20 個聖筊的 300 萬傳奇，探討台灣人與神明溝通的機率與溫度。",
    "city": "嘉義"
  },
  {
    "title": "斗笠：龍肚國中旁那對夫妻，把六十年的桂竹編進一頂帽子裡",
    "lat": 24.991023,
    "lng": 121.301041,
    "category": "culture",
    "region": "north",
    "link": "/culture/%E6%96%97%E7%AC%A0",
    "lang": "zh-TW",
    "desc": "2017 年高雄美濃林榮春八十多歲還在削竹篾，2014 年台南龍崎陳連親奶奶八十六歲一小時做一頂；花蓮富里徐貴珠 2016 年一頂只賣 150 元；2022 年客傳會《傳、傳》紀錄片裡苗栗吳進運、徐寶妹做了五十年。新竹芎林全盛期家家戶戶堆桂竹，桃園蘆竹坑子三十戶日產百頂——如今全島會做粗工斗笠的師傅多半超過七十歲，2024 年原保地禁伐補償加碼到每公頃 6 萬元後連桂竹採料都在斷鏈。斗笠沒從田裡消失，消失的是會把竹葉夾進竹篾骨架、再用棉線一圈圈固定下來的那雙手。",
    "city": "桃園"
  },
  {
    "title": "族群（閩南客家原住民外省新住民）",
    "lat": 25.033821,
    "lng": 121.572916,
    "category": "culture",
    "region": "north",
    "link": "/culture/%E6%97%8F%E7%BE%A4%EF%BC%88%E9%96%A9%E5%8D%97%E5%AE%A2%E5%AE%B6%E5%8E%9F%E4%BD%8F%E6%B0%91%E5%A4%96%E7%9C%81%E6%96%B0%E4%BD%8F%E6%B0%91%EF%BC%89",
    "lang": "zh-TW",
    "desc": "一場道歉儀式、一萬人的遊行、57萬個新來的家庭——台灣族群的故事，比「多元共融」四個字複雜得多。",
    "city": "台北"
  },
  {
    "title": "澎湖民俗文化",
    "lat": 23.571,
    "lng": 119.579,
    "category": "culture",
    "region": "islands",
    "link": "/culture/%E6%BE%8E%E6%B9%96%E6%B0%91%E4%BF%97%E6%96%87%E5%8C%96",
    "lang": "zh-TW",
    "desc": "每年正月十五，澎湖兩百多座廟宇同時擲筊、四萬七千斤米龜堆上供桌——這座被東北季風吹了四百年的群島，用乞龜換回出海的人，用石滬困住退潮的魚，用褒歌對唱一整個冬天的寂寞。",
    "city": "澎湖"
  },
  {
    "title": "皮影戲：從「皮影戲窟」彌陀到皇民化的猿蟹合戰",
    "lat": 22.629104,
    "lng": 120.295455,
    "category": "culture",
    "region": "south",
    "link": "/culture/%E7%9A%AE%E5%BD%B1%E6%88%B2",
    "lang": "zh-TW",
    "desc": "台灣皮影戲的根在高雄彌陀，傳說三百年前隨鄭成功來台的阿萬師把技藝留在了這座小鎮。1937年皇民化運動逼迫藝師用日語演出《猿蟹合戰》，劇團因此獲選「第一奉公團」倖存至今。東華皮影戲團傳承六代，是台灣仍在演出的最古老家族偶戲。",
    "city": "高雄"
  },
  {
    "title": "神豬：台灣信仰與動物權的百年拉扯與轉型之路",
    "lat": 25.034222,
    "lng": 121.560948,
    "category": "culture",
    "region": "north",
    "link": "/culture/%E7%A5%9E%E8%B1%AC",
    "lang": "zh-TW",
    "desc": "神豬文化是台灣閩客族群特有的祭祀傳統，核心在於將巨型豬隻獻祭神明。其起源於清代義民信仰，經日治時期畜牧推廣轉向競重，現代則因「下窟」限制行動與強迫灌食引發動物福利爭議。各地祭典正以「創意神豬」或「自然飼養」轉型，尋求信仰與生命尊嚴的平衡。",
    "city": "台北"
  },
  {
    "title": "紙傘：從雨具到藝術，撐起台灣客家文化的百年風華",
    "lat": 22.623609,
    "lng": 120.303743,
    "category": "culture",
    "region": "south",
    "link": "/culture/%E7%B4%99%E5%82%98",
    "lang": "zh-TW",
    "desc": "在高雄美濃，一把看似尋常的紙傘，不僅承載著客家「早生貴子」與「圓滿」的祝福，更在產業低谷中，透過匠人林享麟的堅持與《漢聲》雜誌的報導，從日常雨具蛻變為國際矚目的藝術品，訴說著台灣傳統工藝如何逆境重生，並在現代社會中找到新定位的百年故事。",
    "city": "高雄"
  },
  {
    "title": "群島思維：把台灣放回馬來世界這一塊地圖",
    "lat": 22.025292,
    "lng": 121.556544,
    "category": "culture",
    "region": "east",
    "link": "/culture/%E7%BE%A4%E5%B3%B6%E6%80%9D%E7%B6%AD",
    "lang": "zh-TW",
    "desc": "台灣不是中華邊陲的孤島，也是馬來世界的東北端、南島語族的原鄉、太平洋擴散的起點。地圖往南旋轉 30 度，你會看見另一張完全成立但被遺漏的座標系統。",
    "city": "台東"
  },
  {
    "title": "藍染",
    "lat": 24.561,
    "lng": 120.821,
    "category": "culture",
    "region": "central",
    "link": "/culture/%E8%97%8D%E6%9F%93",
    "lang": "zh-TW",
    "desc": "它曾經是台灣排名第三的出口商品，讓北台灣的山城一夜致富；後來它消失了半個世紀，直到一群人決定把那抹「台灣藍」從土裡種回來。",
    "city": "苗栗"
  },
  {
    "title": "關聖帝君：一個敗軍之將如何成為台灣的萬能之神",
    "lat": 25.032085,
    "lng": 121.5629,
    "category": "culture",
    "region": "north",
    "link": "/culture/%E9%97%9C%E8%81%96%E5%B8%9D%E5%90%9B%E4%BF%A1%E4%BB%B0",
    "lang": "zh-TW",
    "desc": "三國武將關羽兵敗被斬首，卻在台灣演化出全球獨有的「恩主公」信仰體系——而全台最繁忙的關帝廟，連一炷香都不讓你燒。",
    "city": "台北"
  },
  {
    "title": "台灣雜誌：從《自由中國》到《巧連智》，一本本被翻過去、又被滑過去的閱讀史",
    "lat": 22.626722,
    "lng": 120.300715,
    "category": "culture",
    "region": "south",
    "link": "/culture/%E9%9B%9C%E8%AA%8C",
    "lang": "zh-TW",
    "desc": "1960 年雷震因《自由中國》入獄十年；2024 年陪伴 183 萬家庭 35 年的《巧連智》停止紙本訂閱；2025 年《讀者文摘》中文版在創刊 60 年後熄燈。台灣讀者翻過去的，現在被一頁頁滑過去。",
    "city": "高雄"
  },
  {
    "title": "黑白大廚在台灣：一檔 Netflix 韓綜，16 個月內接進 7 條消費產業的味覺壓力測試",
    "lat": 24.999351,
    "lng": 121.299957,
    "category": "culture",
    "region": "north",
    "link": "/culture/%E9%BB%91%E7%99%BD%E5%A4%A7%E5%BB%9A%E5%9C%A8%E5%8F%B0%E7%81%A3",
    "lang": "zh-TW",
    "desc": "2024 年 9 月，Netflix《黑白大廚：料理階級大戰》首播當週就在台灣奪下收視冠軍。接下來 16 個月，節目裡 9 位韓國主廚透過聯名、客座、代言的方式，把觸角伸進台灣超商鮮食、手搖飲、速食連鎖、五星飯店自助餐、外送平台、連鎖韓食、甚至 Galaxy Z 摺疊機——七條幾乎互不相關的消費產業。其中金太星背書的手搖品牌「十盛」撐了 20 個月後於 2025-12-26 歇業，是台灣第一次對「韓綜主廚背書」做反向檢驗。",
    "city": "桃園"
  },
  {
    "title": "台灣中小企業與隱形冠軍：171萬家平凡無奇企業撐起的經濟奇蹟",
    "lat": 24.083291,
    "lng": 120.536616,
    "category": "economy",
    "region": "central",
    "link": "/economy/%E5%8F%B0%E7%81%A3%E4%B8%AD%E5%B0%8F%E4%BC%81%E6%A5%AD%E8%88%87%E9%9A%B1%E5%BD%A2%E5%86%A0%E8%BB%8D",
    "lang": "zh-TW",
    "desc": "真正支撐台灣經濟的不是護國神山，而是171萬家看似平凡、卻創造79%就業機會的隱形冠軍。從1960年代黑手師傅起家，到今日掌控全球利基市場的精密製造王國。",
    "city": "彰化"
  },
  {
    "title": "中鋼：鐵頭部長與十大建設的鋼鐵傳奇",
    "lat": 22.619825,
    "lng": 120.306707,
    "category": "economy",
    "region": "south",
    "link": "/economy/%E5%8F%B0%E7%81%A3%E4%BC%81%E6%A5%AD%EF%BC%9A%E4%B8%AD%E9%8B%BC",
    "lang": "zh-TW",
    "desc": "從趙耀東歐美談判智取技術，到高雄小港升起的第一縷白煙，中鋼用50年打造台灣重工業脊樑，是十大建設最成功的明珠",
    "city": "高雄"
  },
  {
    "title": "仁寶電腦",
    "lat": 25.039212,
    "lng": 121.560438,
    "category": "economy",
    "region": "north",
    "link": "/economy/%E5%8F%B0%E7%81%A3%E4%BC%81%E6%A5%AD%EF%BC%9A%E4%BB%81%E5%AF%B6%E9%9B%BB%E8%85%A6",
    "lang": "zh-TW",
    "desc": "全球第二大筆電代工龍頭，台灣ODM產業的重要推手",
    "city": "台北"
  },
  {
    "title": "台灣企業：台塑集團",
    "lat": 23.705966,
    "lng": 120.424726,
    "category": "economy",
    "region": "central",
    "link": "/economy/%E5%8F%B0%E7%81%A3%E4%BC%81%E6%A5%AD%EF%BC%9A%E5%8F%B0%E5%A1%91%E9%9B%86%E5%9C%98",
    "lang": "zh-TW",
    "desc": "台灣經營之神王永慶打造的石化王國，台塑四寶的製造傳奇",
    "city": "雲林"
  },
  {
    "title": "台泥：台灣第一上市公司的綠色轉型傳奇",
    "lat": 22.997781,
    "lng": 120.160624,
    "category": "economy",
    "region": "south",
    "link": "/economy/%E5%8F%B0%E7%81%A3%E4%BC%81%E6%A5%AD%EF%BC%9A%E5%8F%B0%E6%B3%A5",
    "lang": "zh-TW",
    "desc": "1962年台灣證交所為它而生，股票代號1101象徵台股起源。從辜家三代經營76年，台泥用一座座水泥窯見證台灣建設奇蹟，如今轉型綠色企業迎戰碳中和時代",
    "city": "台南"
  },
  {
    "title": "台灣企業：台積電",
    "lat": 24.803436,
    "lng": 120.965893,
    "category": "economy",
    "region": "north",
    "link": "/economy/%E5%8F%B0%E7%81%A3%E4%BC%81%E6%A5%AD%EF%BC%9A%E5%8F%B0%E7%A9%8D%E9%9B%BB",
    "lang": "zh-TW",
    "desc": "54 歲離開德州儀器、56 歲創立台積電的張忠謀，前十八年逃過三次難、住過六個城市。三十八年後 2025 年 3 月 3 日，美國總統川普在白宮指著張忠謀的接班人魏哲家說：「他是這個房間裡最重要的男人。」2026 年第一季台積電單季營收 359 億美元。一座颱風頻繁、缺水缺電的島，蓋出全人類數位文明的心臟——但這顆心臟越大，這座島能否承擔它的代價，反而越說不清楚。",
    "city": "新竹"
  },
  {
    "title": "奇美實業：許文龍的壓克力王國與博物館夢想",
    "lat": 22.935,
    "lng": 120.226,
    "category": "economy",
    "region": "south",
    "link": "/economy/%E5%8F%B0%E7%81%A3%E4%BC%81%E6%A5%AD%EF%BC%9A%E5%A5%87%E7%BE%8E%E5%AF%A6%E6%A5%AD",
    "lang": "zh-TW",
    "desc": "從1960年台南仁德小工廠起步，許文龍用一生打造亞洲最大ABS材料王國，更創建奇美博物館回饋社會。證明台灣企業可以兼顧商業成功與人文關懷",
    "city": "台南"
  },
  {
    "title": "台灣企業：巨大機械",
    "lat": 25.039528,
    "lng": 121.563848,
    "category": "economy",
    "region": "north",
    "link": "/economy/%E5%8F%B0%E7%81%A3%E4%BC%81%E6%A5%AD%EF%BC%9A%E5%B7%A8%E5%A4%A7%E6%A9%9F%E6%A2%B0",
    "lang": "zh-TW",
    "desc": "從被美國大廠拋棄的代工奴隸，到制定全球自行車技術標準的隱形帝國",
    "city": "台北"
  },
  {
    "title": "台灣企業：廣達電腦",
    "lat": 25.030607,
    "lng": 121.563398,
    "category": "economy",
    "region": "north",
    "link": "/economy/%E5%8F%B0%E7%81%A3%E4%BC%81%E6%A5%AD%EF%BC%9A%E5%BB%A3%E9%81%94%E9%9B%BB%E8%85%A6",
    "lang": "zh-TW",
    "desc": "從工廠火災到全球筆電王，林百里如何建造AI時代的新帝國？",
    "city": "台北"
  },
  {
    "title": "台灣企業：日月光半導體",
    "lat": 22.622168,
    "lng": 120.294322,
    "category": "economy",
    "region": "south",
    "link": "/economy/%E5%8F%B0%E7%81%A3%E4%BC%81%E6%A5%AD%EF%BC%9A%E6%97%A5%E6%9C%88%E5%85%89%E5%8D%8A%E5%B0%8E%E9%AB%94",
    "lang": "zh-TW",
    "desc": "全球第一大封測廠，建設公司老闆為何轉戰半導體？",
    "city": "高雄"
  },
  {
    "title": "台灣企業：玉山金控 — 黃永仁的專業經理人銀行",
    "lat": 23.469298,
    "lng": 120.961715,
    "category": "economy",
    "region": "central",
    "link": "/economy/%E5%8F%B0%E7%81%A3%E4%BC%81%E6%A5%AD%EF%BC%9A%E7%8E%89%E5%B1%B1%E9%87%91%E6%8E%A7",
    "lang": "zh-TW",
    "desc": "玉山金控由黃永仁 1992 年發起創立玉山商業銀行，是台灣解嚴後第一波新銀行潮中由專業金融人領航、不依附財團家族的代表。黃男州 2008 年以 43 歲成為台灣金控史上最年輕總經理，2023 年從創辦人黃永仁手中接下金控董事長。從專業經理人制度到數位金融創新，玉山三十多年走出獨特路徑，2024 年資產規模達 2.8 兆元、列台灣第三大民營金控。",
    "city": "南投"
  },
  {
    "title": "義美：百年固執、食安良心，與社會共好的多維實踐",
    "lat": 25.053547,
    "lng": 121.51092,
    "category": "economy",
    "region": "north",
    "link": "/economy/%E5%8F%B0%E7%81%A3%E4%BC%81%E6%A5%AD%EF%BC%9A%E7%BE%A9%E7%BE%8E%E9%A3%9F%E5%93%81",
    "lang": "zh-TW",
    "desc": "義美食品，這家從日治時期大稻埕「大安醫院」原址起家的糕餅店，如何在高騰蛟與高志明兩代人的固執經營下，成為台灣食品產業的標竿？本文深入探討其從傳統糕餅到現代通路、從食安實驗室到機器人產業的多維實踐，以及其在社會責任與品牌神話中的挑戰與轉型。",
    "city": "台北"
  },
  {
    "title": "遠東集團：從上海紡織廠到台灣最多元化商業帝國",
    "lat": 25.017369,
    "lng": 121.468821,
    "category": "economy",
    "region": "north",
    "link": "/economy/%E5%8F%B0%E7%81%A3%E4%BC%81%E6%A5%AD%EF%BC%9A%E9%81%A0%E6%9D%B1%E9%9B%86%E5%9C%98",
    "lang": "zh-TW",
    "desc": "87年前上海的一間小紡織廠，如何演變成跨越十大產業、資產逾3兆的台灣商業帝國？遠東集團的發展史，見證了台商從榮耀到政治風險的完整軌跡",
    "city": "新北"
  },
  {
    "title": "台灣企業：長春石化",
    "lat": 23.005736,
    "lng": 120.22176,
    "category": "economy",
    "region": "south",
    "link": "/economy/%E5%8F%B0%E7%81%A3%E4%BC%81%E6%A5%AD%EF%BC%9A%E9%95%B7%E6%98%A5%E7%9F%B3%E5%8C%96",
    "lang": "zh-TW",
    "desc": "1949年台南小工廠到全球化工巨頭，「不上市不借錢」的隱形冠軍故事",
    "city": "台南"
  },
  {
    "title": "台灣企業：鴻海精密：8 兆營收與內部反貪戰爭的同一張資產負債表",
    "lat": 25.035363,
    "lng": 121.559008,
    "category": "economy",
    "region": "north",
    "link": "/economy/%E5%8F%B0%E7%81%A3%E4%BC%81%E6%A5%AD%EF%BC%9A%E9%B4%BB%E6%B5%B7%E7%B2%BE%E5%AF%86",
    "lang": "zh-TW",
    "desc": "2026 年 4 月 30 日上午，《時代》雜誌把鴻海列入百大影響力企業；同一天傍晚，檢調人員手持搜索票走進鴻海土城廠。從 1974 年母親標會 10 萬到 2025 年雲端網路超越消費電子的 8 兆營收，鴻海最難管的不是地緣政治、不是 AI 機櫃出貨節奏，是自己人。",
    "city": "台北"
  },
  {
    "title": "台灣前 50 大企業：護國神山撐起一張表，也撐起一個單點故障的國家",
    "lat": 22.632937,
    "lng": 120.298051,
    "category": "economy",
    "region": "south",
    "link": "/economy/%E5%8F%B0%E7%81%A3%E5%89%8D50%E5%A4%A7%E4%BC%81%E6%A5%AD",
    "lang": "zh-TW",
    "desc": "2026 年 5 月 19 日，台積電一家公司的市值占整個台灣加權指數 31.51%，占台股總市值約四成；50 大公司加總撐起一個 GDP，但其中一家就綁架了這個 GDP 的命運。電子業 36%、金融 25%、傳產 10%，所謂「電金傳產」三足鼎立其實由電子業一條腿撐起半個身體。從寧夏夜市黃仁勳跟張忠謀合照那一晚，到凱旋三路凌晨 32 條人命，這張排行榜既是台灣不可取代的脊椎，也是它最脆弱的單點故障。",
    "city": "高雄"
  },
  {
    "title": "台灣機械工具產業",
    "lat": 24.148,
    "lng": 120.674,
    "category": "economy",
    "region": "central",
    "link": "/economy/%E5%8F%B0%E7%81%A3%E6%A9%9F%E6%A2%B0%E5%B7%A5%E5%85%B7%E7%94%A2%E6%A5%AD",
    "lang": "zh-TW",
    "desc": "從大肚山黃金縱谷到 TMTS 2026，台灣工具機產業的韌性、崩盤、重生，以及為什麼 2024 年從全球第 5 掉到第 7 的結構性焦慮。",
    "city": "台中"
  },
  {
    "title": "台灣產業轉型升級：從製造大國到創新強國",
    "lat": 24.784,
    "lng": 120.993,
    "category": "economy",
    "region": "north",
    "link": "/economy/%E5%8F%B0%E7%81%A3%E7%94%A2%E6%A5%AD%E8%BD%89%E5%9E%8B%E5%8D%87%E7%B4%9A",
    "lang": "zh-TW",
    "desc": "台灣產業結構從勞力密集轉向知識密集，透過5+2產業創新、6大核心戰略產業等政策，推動傳統製造業升級與新興產業發展。",
    "city": "新竹"
  },
  {
    "title": "台灣科技園區外圍商圈生態",
    "lat": 25.030756,
    "lng": 121.558616,
    "category": "economy",
    "region": "north",
    "link": "/economy/%E5%8F%B0%E7%81%A3%E7%A7%91%E6%8A%80%E5%9C%92%E5%8D%80%E5%A4%96%E5%9C%8D%E5%95%86%E5%9C%88%E7%94%9F%E6%85%8B",
    "lang": "zh-TW",
    "desc": "南港軟體園區、內湖科技園區、新竹科學園區、中部科學園區、南部科學園區外圍餐廳為什麼只剩午餐、晚餐紛紛收掉。本文從通勤模式、BOT 分區管制與加班文化轉變三個面向拆解台灣科技走廊的單峰商圈現象，並追蹤 2025 年 3 月 LaLaport 開幕對三重路、園區街傳統午市店家造成的結構性衝擊。",
    "city": "台北"
  },
  {
    "title": "台灣股市與資本市場：從 1990 萬點崩盤到 2026 全球第 6 大，44% 身家壓在一檔上的島嶼",
    "lat": 25.02609,
    "lng": 121.57075,
    "category": "economy",
    "region": "north",
    "link": "/economy/%E5%8F%B0%E7%81%A3%E8%82%A1%E5%B8%82%E8%88%87%E8%B3%87%E6%9C%AC%E5%B8%82%E5%A0%B4",
    "lang": "zh-TW",
    "desc": "2026 年 4 月 28 日彭博跳出「Taiwan Overtakes Canada」。一個曾在 1990 年萬點崩盤帶走十六萬人退休金的島嶼，三十六年後攻上全球第 6 大股市——但市值 4.47 兆美元裡，接近一半壓在一家半導體公司身上。",
    "city": "台北"
  },
  {
    "title": "夜市經濟學：一場沒有品牌的商業奇蹟",
    "lat": 24.179,
    "lng": 120.647,
    "category": "economy",
    "region": "central",
    "link": "/economy/%E5%A4%9C%E5%B8%82%E7%B6%93%E6%BF%9F%E5%AD%B8",
    "lang": "zh-TW",
    "desc": "探索台灣夜市如何在沒有品牌、裝潢和固定地點的情況下，創造年產值近4000億的經濟奇蹟",
    "city": "台中"
  },
  {
    "title": "發票：1951 年那張把全民變成稅務稽查員的紙",
    "lat": 25.027229,
    "lng": 121.572729,
    "category": "economy",
    "region": "north",
    "link": "/economy/%E7%99%BC%E7%A5%A8",
    "lang": "zh-TW",
    "desc": "1951 年元旦，台灣省財政廳長任顯群把抽獎號碼印在每一張收據上，要求全台商家照著開。一張 20 元的飲料發票同時是交易明細、抽獎券，也是政府放出去的稽查耳目。70 年後它演化成雲端載具、社福命脈、AI 演算法爭議，從威權時期的財政急救包長成台灣特有的數位治理樣本。",
    "city": "台北"
  },
  {
    "title": "經濟奇蹟",
    "lat": 22.633496,
    "lng": 120.293533,
    "category": "economy",
    "region": "south",
    "link": "/economy/%E7%B6%93%E6%BF%9F%E5%A5%87%E8%B9%9F",
    "lang": "zh-TW",
    "desc": "1952年，台灣人均GDP只有196美元，比海地還窮。40年後，台灣成為「亞洲四小龍」之首，人均GDP超過1萬美元。但這個「奇蹟」的代價是什麼？當我們讚美台灣錢淹腳目的年代時，很少人談起那些在加工出口區裡每天工作12小時的女工，和那些把一生積蓄押在小工廠裡的老闆們。",
    "city": "高雄"
  },
  {
    "title": "螺絲：在 50% 關稅與碳邊境夾擊下，台灣隱形冠軍的存亡之戰",
    "lat": 22.630919,
    "lng": 120.304699,
    "category": "economy",
    "region": "south",
    "link": "/economy/%E8%9E%BA%E7%B5%B2",
    "lang": "zh-TW",
    "desc": "曾是美軍越戰補給線的關鍵一環，奠定台灣「螺絲王國」基石的高雄岡山，如今正處於歷史的十字路口。在美國 232 條款 50% 高關稅與歐盟 CBAM 碳邊境稅的雙重重擊下，這群曾主宰全球市場的隱形冠軍，正試圖在半導體產業的光環下，寫下韌性轉型的新篇章。",
    "city": "高雄"
  },
  {
    "title": "農業科技與精緻農業",
    "lat": 23.00077,
    "lng": 120.225159,
    "category": "economy",
    "region": "south",
    "link": "/economy/%E8%BE%B2%E6%A5%AD%E7%A7%91%E6%8A%80%E8%88%87%E7%B2%BE%E7%B7%BB%E8%BE%B2%E6%A5%AD",
    "lang": "zh-TW",
    "desc": "台灣如何從傳統農業轉型為高科技精緻農業，創造農業奇蹟",
    "city": "台南"
  },
  {
    "title": "三峽茶：從「青心柑仔」的螺旋轉向，到夏茶價值的蜜香升級",
    "lat": 25.029372,
    "lng": 121.55894,
    "category": "food",
    "region": "north",
    "link": "/food/%E4%B8%89%E5%B3%BD%E8%8C%B6",
    "lang": "zh-TW",
    "desc": "三峽是台灣最具代表性的專業炒菁綠茶產區，其產業路徑是一場關於「適應」的長期實驗。從清同治年間的陶德發現，到日治時期綠茶外銷的受壓制，再到 1990 年代末期碧螺春的正式定名，三峽茶農在特有品種與土地開發的夾縫中，勾勒出台灣綠茶的在地標準。",
    "city": "台北"
  },
  {
    "title": "刈包：從福州虎咬豬到 BAO London 的米其林符號",
    "lat": 25.032256,
    "lng": 121.571325,
    "category": "food",
    "region": "north",
    "link": "/food/%E5%88%88%E5%8C%85",
    "lang": "zh-TW",
    "desc": "1927 年新竹仕紳黃旺成的日記裡，「虎咬豬」是尾牙桌上慰勞職工的點心。一百年後，倫敦 Soho 的 Lexington Street 排隊隊伍在等同一個對折麵食，米其林指南把它寫進必比登推介。這顆白胖摺疊的小吃，吃進了台灣四百年的福州移民史、土地公尾牙的勞資儀式，跟一個從台北飛到倫敦的藝術家如何把它端進國際餐桌。",
    "city": "台北"
  },
  {
    "title": "台灣冰品文化",
    "lat": 22.998395,
    "lng": 120.22664,
    "category": "food",
    "region": "south",
    "link": "/food/%E5%8F%B0%E7%81%A3%E5%86%B0%E5%93%81%E6%96%87%E5%8C%96",
    "lang": "zh-TW",
    "desc": "從玉井芒果冰到雪花冰革命，探索台灣人冬天也要吃冰的獨特文化",
    "city": "台南"
  },
  {
    "title": "台灣咖啡文化：便利商店一年賣六億杯的島嶼",
    "lat": 23.502528,
    "lng": 120.704597,
    "category": "food",
    "region": "south",
    "link": "/food/%E5%8F%B0%E7%81%A3%E5%92%96%E5%95%A1%E6%96%87%E5%8C%96",
    "lang": "zh-TW",
    "desc": "日治時期從雲林古坑種下的第一棵咖啡樹，一百年後長成了每五十公尺一家咖啡廳的都市風景。路易莎開到六百家，超過星巴克。阿里山咖啡打進國際賽。台灣人的咖啡，從來不只是咖啡。",
    "city": "嘉義"
  },
  {
    "title": "台灣咖啡產業",
    "lat": 23.510548,
    "lng": 120.706624,
    "category": "food",
    "region": "south",
    "link": "/food/%E5%8F%B0%E7%81%A3%E5%92%96%E5%95%A1%E7%94%A2%E6%A5%AD",
    "lang": "zh-TW",
    "desc": "從德記洋行1884年的100株苗木到2024年首屆CoE卓越盃，一個島嶼如何在140年間打造出年進口4.3萬公噸的咖啡王國",
    "city": "嘉義"
  },
  {
    "title": "台灣小吃",
    "lat": 25.088,
    "lng": 121.524,
    "category": "food",
    "region": "north",
    "link": "/food/%E5%8F%B0%E7%81%A3%E5%B0%8F%E5%90%83",
    "lang": "zh-TW",
    "desc": "1987年春水堂的一個失誤，讓珍珠奶茶走進60國市場。台灣小吃從清代移民的生存工具，到今天23.3萬個攤位撐起的4000億產業：它的成功方程式不是精緻化，而是那種「管它的，先試試看」的草根勇氣。",
    "city": "台北"
  },
  {
    "title": "台灣手路菜：意思、由來與辦桌文化的「拿手好菜」",
    "lat": 22.624128,
    "lng": 120.305584,
    "category": "food",
    "region": "south",
    "link": "/food/%E5%8F%B0%E7%81%A3%E6%89%8B%E8%B7%AF%E8%8F%9C",
    "lang": "zh-TW",
    "desc": "手路菜（台語 tshiú-lōo-tshài）是「拿手好菜」的意思。高雄內門的白堊土種不出作物，卻養出全台密度最高的總鋪師——黃金年代一年辦 25,000 桌，大月營收 1,200 萬。一鍋菜尾湯要花四到八小時，結得好不好，全村隔天都知道。",
    "city": "高雄"
  },
  {
    "title": "台灣新住民美食融合",
    "lat": 25.029881,
    "lng": 121.557633,
    "category": "food",
    "region": "north",
    "link": "/food/%E5%8F%B0%E7%81%A3%E6%96%B0%E4%BD%8F%E6%B0%91%E7%BE%8E%E9%A3%9F%E8%9E%8D%E5%90%88",
    "lang": "zh-TW",
    "desc": "當泰式酸辣遇上台灣甜鹹、當越南河粉邂逅台式滷味、當印尼香料擁抱本土食材，一場跨越國界的味覺革命正在台灣悄然發生。新住民帶來的不只是故鄉的料理，更是豐富台灣美食文化的全新可能。",
    "city": "台北"
  },
  {
    "title": "台灣海鮮文化",
    "lat": 25.128,
    "lng": 121.739,
    "category": "food",
    "region": "north",
    "link": "/food/%E5%8F%B0%E7%81%A3%E6%B5%B7%E9%AE%AE%E6%96%87%E5%8C%96",
    "lang": "zh-TW",
    "desc": "漁港新鮮直送、海鮮餐廳文化、蚵仔煎等海味料理，展現台灣四面環海的島嶼特色與豐富的海鮮飲食傳統",
    "city": "基隆"
  },
  {
    "title": "台灣滷肉飯",
    "lat": 25.028626,
    "lng": 121.562142,
    "category": "food",
    "region": "north",
    "link": "/food/%E5%8F%B0%E7%81%A3%E6%BB%B7%E8%82%89%E9%A3%AF",
    "lang": "zh-TW",
    "desc": "從眷村廚房到國民美食，探索台灣滷肉飯的南北戰爭與文化認同",
    "city": "台北"
  },
  {
    "title": "台灣眷村菜",
    "lat": 22.63018,
    "lng": 120.30198,
    "category": "food",
    "region": "south",
    "link": "/food/%E5%8F%B0%E7%81%A3%E7%9C%B7%E6%9D%91%E8%8F%9C",
    "lang": "zh-TW",
    "desc": "1949大遷移帶來的各省味道，從竹籬笆內的廚房到眷村拆遷後的味覺保存",
    "city": "高雄"
  },
  {
    "title": "台灣米其林：星光下的代價與重新定義",
    "lat": 25.029806,
    "lng": 121.56433,
    "category": "food",
    "region": "north",
    "link": "/food/%E5%8F%B0%E7%81%A3%E7%B1%B3%E5%85%B6%E6%9E%97%E8%88%87%E7%B2%BE%E7%B7%BB%E9%A4%90%E9%A3%B2",
    "lang": "zh-TW",
    "desc": "2018 年米其林登陸台灣，表面上是國際認證的榮耀，實際上重新劃分了餐飲業的生存規則——「幾乎夠格」的餐廳，反而成了最大受害者。",
    "city": "台北"
  },
  {
    "title": "台灣米食文化",
    "lat": 24.800037,
    "lng": 120.976581,
    "category": "food",
    "region": "north",
    "link": "/food/%E5%8F%B0%E7%81%A3%E7%B1%B3%E9%A3%9F%E6%96%87%E5%8C%96",
    "lang": "zh-TW",
    "desc": "從年吃 85 公斤到 42 公斤：一個稻米島國的飲食革命與文化堅持",
    "city": "新竹"
  },
  {
    "title": "台灣糕餅文化",
    "lat": 24.055,
    "lng": 120.437,
    "category": "food",
    "region": "central",
    "link": "/food/%E5%8F%B0%E7%81%A3%E7%B3%95%E9%A4%85%E6%96%87%E5%8C%96",
    "lang": "zh-TW",
    "desc": "從 1877 鹿港玉珍齋的鳳眼糕到 2026 陳耀訓拓元售票系統 30 秒完售的紅土蛋黃酥，台灣糕餅 150 年的層次故事。中間夾著日治一福堂的方塊鳳梨酥革命、豐原寶泉的橄欖形蛋黃酥實驗、八卦山下 270 公頃土鳳梨契作、油皮包油酥的工藝突變，以及百年漢餅鋪跟世界麵包冠軍站在同一張中秋餐桌上。",
    "city": "彰化"
  },
  {
    "title": "台灣素食文化",
    "lat": 25.031152,
    "lng": 121.56543,
    "category": "food",
    "region": "north",
    "link": "/food/%E5%8F%B0%E7%81%A3%E7%B4%A0%E9%A3%9F%E6%96%87%E5%8C%96",
    "lang": "zh-TW",
    "desc": "台灣素食人口比例全球前三，從佛教素食傳統到現代素料創新的文化演進",
    "city": "台北"
  },
  {
    "title": "台灣美食總覽：沒有一道菜是純粹台灣的，每一道菜都是最台灣的",
    "lat": 25.039275,
    "lng": 121.558332,
    "category": "food",
    "region": "north",
    "link": "/food/%E5%8F%B0%E7%81%A3%E7%BE%8E%E9%A3%9F%E7%B8%BD%E8%A6%BD",
    "lang": "zh-TW",
    "desc": "1949 年的嘉義噴水池圓環旁，林添壽把美軍養剩的火雞切片鋪在白飯上、淋上閩南滷汁。從原住民石板烤山豬、客家薑絲炒大腸、眷村川味牛肉麵到 1986 年台中發明的珍珠奶茶，再到 2025 年米其林收進的 419 家餐廳。這座島嶼花了四百年把每一道借來的菜煮成自己的方式。",
    "city": "台北"
  },
  {
    "title": "台灣辦桌文化",
    "lat": 22.625048,
    "lng": 120.301213,
    "category": "food",
    "region": "south",
    "link": "/food/%E5%8F%B0%E7%81%A3%E8%BE%A6%E6%A1%8C%E6%96%87%E5%8C%96",
    "lang": "zh-TW",
    "desc": "一個清朝就存在的產業，在台灣最貧瘠的土地上養出全球密度最高的總鋪師。疫情讓訂單蒸發九成，但真正讓行家憂心的，從來不是失業——是失傳。",
    "city": "高雄"
  },
  {
    "title": "台灣鹹酥雞",
    "lat": 25.041049,
    "lng": 121.509247,
    "category": "food",
    "region": "north",
    "link": "/food/%E5%8F%B0%E7%81%A3%E9%B9%B9%E9%85%A5%E9%9B%9E",
    "lang": "zh-TW",
    "desc": "台灣最普遍的宵夜文化，從鹹酥雞攤的社會學到炸物美學的進化",
    "city": "台北"
  },
  {
    "title": "台灣鹽酥雞",
    "lat": 25.044779,
    "lng": 121.505124,
    "category": "food",
    "region": "north",
    "link": "/food/%E5%8F%B0%E7%81%A3%E9%B9%BD%E9%85%A5%E9%9B%9E",
    "lang": "zh-TW",
    "desc": "1975 年，一個餐廳經營失敗的台南人陳廷智在西門町擺起推車，用祖傳醃料炸雞塊。五十年後，鹽酥雞成了台灣少數不需要夜市、不需要店面、只靠一台推車和一鍋油就能存活的小吃——CNN 兩度將它列入台灣必吃清單，但它最正宗的吃法，永遠是半夜在路邊等那個紙袋。",
    "city": "台北"
  },
  {
    "title": "名間埔中茶：撐起台灣手搖飲八成江山的「無名英雄」",
    "lat": 23.749,
    "lng": 120.688,
    "category": "food",
    "region": "central",
    "link": "/food/%E5%90%8D%E9%96%93%E5%9F%94%E4%B8%AD%E8%8C%B6",
    "lang": "zh-TW",
    "desc": "2025 年名間焚化爐爭議，意外揭露台灣手搖飲 80% 基底茶源自南投名間。從清代「三埔中」美譽到 1975 年更名「松柏長青茶」，這座海拔僅 400 公尺的淺山，正因焚化爐選址陷入一場守護茶鄉生存權的激戰。",
    "city": "南投"
  },
  {
    "title": "嘉義火雞肉飯：一碗三十元的城市身分證",
    "lat": 23.484553,
    "lng": 120.449987,
    "category": "food",
    "region": "south",
    "link": "/food/%E5%98%89%E7%BE%A9%E7%81%AB%E9%9B%9E%E8%82%89%E9%A3%AF",
    "lang": "zh-TW",
    "desc": "二戰後美軍把火雞帶進嘉義，一個叫林添壽的師傅把火雞肉切絲淋上滷汁蓋在白飯上。七十年後，這碗三十元的飯成了農糧署票選台灣十大招牌飯第一名。嘉義人可以為了「哪家最好吃」吵一整個過年，但有一件事他們不吵：火雞肉飯就是嘉義的。",
    "city": "嘉義"
  },
  {
    "title": "夜市文化",
    "lat": 25.094245,
    "lng": 121.524796,
    "category": "food",
    "region": "north",
    "link": "/food/%E5%A4%9C%E5%B8%82%E6%96%87%E5%8C%96",
    "lang": "zh-TW",
    "desc": "164個列管夜市、台南平均3.8萬人擁有一個夜市，從廟埕到國際觀光景點",
    "city": "台北"
  },
  {
    "title": "太陽餅：從戒嚴時期的「向日葵」禁忌，到台中自由路的百家爭鳴",
    "lat": 24.141564,
    "lng": 120.677445,
    "category": "food",
    "region": "central",
    "link": "/food/%E5%A4%AA%E9%99%BD%E9%A4%85",
    "lang": "zh-TW",
    "desc": "1964年，台中自由路「太陽堂」餅店開幕，藝術家顏水龍創作的向日葵馬賽克壁畫竟因政治禁忌被封印25年。這塊起源於清末麥芽酥餅、由魏清海改良的圓形糕點，如何從鐵路便當的配角，變成台中最具代表性的文化符號？",
    "city": "台中"
  },
  {
    "title": "客家飲食文化",
    "lat": 24.800033,
    "lng": 120.961847,
    "category": "food",
    "region": "north",
    "link": "/food/%E5%AE%A2%E5%AE%B6%E9%A3%B2%E9%A3%9F%E6%96%87%E5%8C%96",
    "lang": "zh-TW",
    "desc": "客家人豐富多元的飲食文化，從擂茶的醇厚香味到野薑花粽的山林風情，展現客家族群勤儉持家與就地取材的生活智慧",
    "city": "新竹"
  },
  {
    "title": "油飯：從「炫富」的糯米到承載生命重量的彌月禮",
    "lat": 24.809723,
    "lng": 120.965626,
    "category": "food",
    "region": "north",
    "link": "/food/%E6%B2%B9%E9%A3%AF",
    "lang": "zh-TW",
    "desc": "2026 年的台灣街頭，一碗油飯仍是許多人慶祝新生的首選。這份源自漢人移民傳統、在台灣演化出鹹甜交織「老饕比例」的料理，把糯米與紅蔥頭組合成台灣家庭在生命轉折點上最厚實的祝福。",
    "city": "新竹"
  },
  {
    "title": "營養午餐：從脫脂奶粉到螢光咖哩，台灣學童餐桌上的百年變革",
    "lat": 25.027865,
    "lng": 121.569281,
    "category": "food",
    "region": "north",
    "link": "/food/%E7%87%9F%E9%A4%8A%E5%8D%88%E9%A4%90",
    "lang": "zh-TW",
    "desc": "1951年，聯合國脫脂奶粉開啟台灣營養午餐序幕。從美援麵粉到在地米食，再到今日食育與免費政策，這段百年變革不僅餵飽學子，更映照社會經濟、教育理念與飲食文化深刻進程。",
    "city": "台北"
  },
  {
    "title": "牛肉麵",
    "lat": 25.025859,
    "lng": 121.561729,
    "category": "food",
    "region": "north",
    "link": "/food/%E7%89%9B%E8%82%89%E9%BA%B5",
    "lang": "zh-TW",
    "desc": "從外省移民鄉愁到台灣國民美食，牛肉麵的文化融合與全球飄香",
    "city": "台北"
  },
  {
    "title": "珍珠奶茶",
    "lat": 24.146165,
    "lng": 120.667754,
    "category": "food",
    "region": "central",
    "link": "/food/%E7%8F%8D%E7%8F%A0%E5%A5%B6%E8%8C%B6",
    "lang": "zh-TW",
    "desc": "1987 年台中的一次員工會議，一個不經意的動作，讓一杯飲料征服了全球。珍珠奶茶的起源爭議、文化政治、與一杯 500 大卡的健康辯論。",
    "city": "台中"
  },
  {
    "title": "竹筒飯：在火堆中與燃點博弈的獵人便當",
    "lat": 24.8086,
    "lng": 120.964699,
    "category": "food",
    "region": "north",
    "link": "/food/%E7%AB%B9%E7%AD%92%E9%A3%AF",
    "lang": "zh-TW",
    "desc": "竹筒飯並非單純的「容器料理」，而是一場精確的「水火博弈」。利用水在 100°C 沸騰的物理特性，讓易燃的竹管在火堆中支撐兩小時而不化為灰燼，這項源自狩獵文化的智慧，如今成為台灣原民食藝的代表。",
    "city": "新竹"
  },
  {
    "title": "粽子",
    "lat": 23.004025,
    "lng": 120.230506,
    "category": "food",
    "region": "south",
    "link": "/food/%E7%B2%BD%E5%AD%90",
    "lang": "zh-TW",
    "desc": "台灣粽子不是一種食物，是四種不同的島嶼記憶疊在一起：閩南、客家、外省、原住民，每一口咬下去的，都是來時路。",
    "city": "台南"
  },
  {
    "title": "糖蔥：藏在白色孔洞裡的「抗爭之糖」",
    "lat": 24.752,
    "lng": 121.753,
    "category": "food",
    "region": "north",
    "link": "/food/%E7%B3%96%E8%94%A5",
    "lang": "zh-TW",
    "desc": "1940年代，台灣農民為了躲避日本警察對蔗糖的壟斷，把深褐色的糖漿拉成雪白如蔥的管狀——農民的「偽裝術」，百年草根智慧的結晶。每一塊糖蔥裡精密的16個大孔與16個小孔，撐起了台灣長達一世紀的甜脆抗爭。",
    "city": "宜蘭"
  },
  {
    "title": "肉圓：從水災救命仙丹到三指痕的生存工藝",
    "lat": 24.084958,
    "lng": 120.531867,
    "category": "food",
    "region": "central",
    "link": "/food/%E8%82%89%E5%9C%93",
    "lang": "zh-TW",
    "desc": "1898 年一場毀滅性的戊戌大水災，竟催生了台灣國民小吃「肉圓」。從北斗神壇文筆生范萬居手下的救命粉丸，到南蒸北炸的味覺邊界，這不只是一場美味的演化，更是台灣人在匱乏中求生的韌性記憶。",
    "city": "彰化"
  },
  {
    "title": "臭豆腐：在逐臭與尋香之間，台灣人的感官極限運動",
    "lat": 23.992,
    "lng": 121.602,
    "category": "food",
    "region": "east",
    "link": "/food/%E8%87%AD%E8%B1%86%E8%85%90",
    "lang": "zh-TW",
    "desc": "從 1950 年代的街頭老兵手藝到登入國宴的「臭豆腐神殿」，這塊發酵豆腐承載了台灣半世紀的韌性。本文解析臭滷水背後的活菌策展，以及深坑焦香與玉里三道油溫的風味秘密。",
    "city": "花蓮"
  },
  {
    "title": "蘋果西打：從國民氣泡飲到資本風暴，一甲子的台灣味如何重生",
    "lat": 22.99983,
    "lng": 120.230089,
    "category": "food",
    "region": "south",
    "link": "/food/%E8%98%8B%E6%9E%9C%E8%A5%BF%E6%89%93",
    "lang": "zh-TW",
    "desc": "1965 年菲律賓華僑李鴻略從美國謝斯尼斯（CosCo）公司買來配方，創立大西洋飲料。蘋菓西打從此成了熱炒店冰箱、辦桌宴席、KTV 包廂裡 60 年沒換位置的金黃氣泡。它的商標前 30 年換了三組外國老闆，靠孫幼英自掏 80 萬美元才贖回台灣；它被韓國偶像圭賢在台南度小月偶遇；它兩次倒在自家工廠的酵母菌與發霉天花板下；最後它的母公司靠賣掉高雄湖內 7222 坪地，撐起 EPS 8.71 元的重磅回歸。",
    "city": "台南"
  },
  {
    "title": "車輪餅：從日治「今川燒」到萬丹紅豆的台灣認同弧線",
    "lat": 22.677906,
    "lng": 120.485074,
    "category": "food",
    "region": "south",
    "link": "/food/%E8%BB%8A%E8%BC%AA%E9%A4%85",
    "lang": "zh-TW",
    "desc": "2026年一場「紅豆餅之亂」引爆語言認同爭議。這款源自江戶時代、日治時期傳入的昂貴點心，如何在1960年代屏東萬丹紅豆試種成功後，從「今川燒」演變成台灣街頭最親民的銅板記憶。",
    "city": "屏東"
  },
  {
    "title": "阿婆鐵蛋：從渡船頭「海腳大飯店」的一場意外，到淡水最硬的集體記憶",
    "lat": 25.17,
    "lng": 121.44,
    "category": "food",
    "region": "north",
    "link": "/food/%E9%98%BF%E5%A9%86%E9%90%B5%E8%9B%8B",
    "lang": "zh-TW",
    "desc": "1983年，一則《民生報》報導讓淡水「海腳大飯店」的黑滷蛋一夜成名。這顆因海風反覆吹乾、越滷越硬的「意外」美食，不僅見證了淡水渡船頭的興衰，更在商標爭議中留下了關於創始人阿哖婆與楊碧雲的歷史公案。",
    "city": "新北"
  },
  {
    "title": "鳳梨酥：從選舉招待點心到年產值 250 億的台灣「金磚」",
    "lat": 25.0322,
    "lng": 121.571649,
    "category": "food",
    "region": "north",
    "link": "/food/%E9%B3%B3%E6%A2%A8%E9%85%A5",
    "lang": "zh-TW",
    "desc": "1945 年，台中顏新發餅舖將傳統龍鳳餅改良為小巧鳳梨酥。從 1970 年代外銷萎縮下的冬瓜餡轉型，到 2009 年微熱山丘重拾土鳳梨的酸甜本色，這塊小小的「金磚」八十年裡始終跟台灣農業命運交織，如今年產值已突破 250 億新台幣，成為外籍旅客心中最具代表性的台灣味。",
    "city": "台北"
  },
  {
    "title": "麻芛湯：從南屯黃麻田到台中夏日餐桌的一碗苦甘綠湯",
    "lat": 24.154504,
    "lng": 120.677915,
    "category": "food",
    "region": "central",
    "link": "/food/%E9%BA%BB%E8%8A%9B%E6%B9%AF",
    "lang": "zh-TW",
    "desc": "1895 年日本人為製麻布袋在台中南屯廣種黃麻，半世紀後塑膠袋淘汰了麻繩產業，卻把麻芛湯留在了台中人的夏天。一碗苦中回甘的綠濃湯，是台灣唯一以「副產品」殘存下來的地方料理。",
    "city": "台中"
  },
  {
    "title": "北大特區：三十年都市計畫與大學城生活實驗",
    "lat": 25.035641,
    "lng": 121.562261,
    "category": "geography",
    "region": "north",
    "link": "/geography/%E5%8C%97%E5%A4%A7%E7%89%B9%E5%8D%80",
    "lang": "zh-TW",
    "desc": "從 1895 年的隆恩埔古戰場到 2026 年的捷運大學城，這是一部關於土地、美學與選擇性認同的深度百科全書。",
    "city": "台北"
  },
  {
    "title": "南投縣：唯一不靠海的縣，921 震央就在它的中心",
    "lat": 23.74725,
    "lng": 120.690158,
    "category": "geography",
    "region": "central",
    "link": "/geography/%E5%8D%97%E6%8A%95%E7%B8%A3",
    "lang": "zh-TW",
    "desc": "1999 年 9 月 21 日凌晨一點四十七分，集集鎮地底車籠埔斷層錯動 102 秒，全台 2,415 人死亡，南投自己佔 886 人，中寮鄉九成建築受損。1930 年霧社公學校升旗那天，莫那魯道帶 6 社賽德克族砍下 134 個日本平民。1934 年武界壩升起 18.18 公尺淹掉邵族的拉魯島。1957 年中興新村蓋好作為省政府臨時辦公處，1998 年精省抽空只剩椰林大道。47 萬人住在這個從 100 公尺爬到 3,952 公尺、賽德克 + 布農 + 邵 + 鄒四族跟漢人同住的內陸縣。台灣最深的傷口都在這裡。",
    "city": "南投"
  },
  {
    "title": "台中市：1887 年差點當首都，2010 年才變第二大直轄市",
    "lat": 24.144714,
    "lng": 120.676694,
    "category": "geography",
    "region": "central",
    "link": "/geography/%E5%8F%B0%E4%B8%AD%E5%B8%82",
    "lang": "zh-TW",
    "desc": "1887 年劉銘傳奏請建省，省城選在彰化縣橋仔頭（今台中市區），規劃八卦形城池。1889 年開始築城。1894 年邵友濂上任後讓省會北遷台北，台中省城停工。1920 年 10 月 1 日日本人在這裡設台中州。1955 年東海大學在大度山動土，1963 年路思義教堂落成。1999 年 9 月 21 日凌晨，車籠埔斷層從南投集集一路撕到台中東勢，東勢鎮死了 358 人。2010 年 12 月 25 日縣市合併升格直轄市，29 區。2016 年伊東豐雄的國家歌劇院在西屯區開幕。286 萬人住在這座等了 123 年的城。",
    "city": "台中"
  },
  {
    "title": "台北 101：從「看門狗」到「金色的蛇」，一座地標的政經與風水豪賭",
    "lat": 25.037455,
    "lng": 121.566286,
    "category": "geography",
    "region": "north",
    "link": "/geography/%E5%8F%B0%E5%8C%97101",
    "lang": "zh-TW",
    "desc": "台北 101 不只是一棟大樓，它是陳水扁與彭淮南的政經博弈、李祖原的風水實驗，更是 Alex Honnold 腳下的「大魔王」。從 59 層到 101 層的演變，揭開這座「聚寶盆」背後的權力與神祕。",
    "city": "台北"
  },
  {
    "title": "台北市：一座城裡的三個時間，1738 龍山寺看著 2004 的 101",
    "lat": 25.032757,
    "lng": 121.561735,
    "category": "geography",
    "region": "north",
    "link": "/geography/%E5%8F%B0%E5%8C%97%E5%B8%82",
    "lang": "zh-TW",
    "desc": "萬華有座 1738 年的龍山寺。三公里外，2004 年元旦前夜，台北 101 在原是日治松山倉庫跟戰後四四兵工廠的土地上落成那刻是世界第一高樓。再走到大稻埕，1860 年代李春生用一艘船的烏龍茶撐起整個北台灣的對外貿易。同一個盆地，1738、1885、2004 三個時間並排放著。1875 沈葆楨設台北府、1920 日本人合三市街為台北市、1947 林江邁那包私菸點燃二二八、1949 國府帶 120 萬人遷台北、1967 升格全台第一個直轄市、1990 野百合在中正紀念堂坐了七天六夜。12 個區，活在不同的世紀。",
    "city": "台北"
  },
  {
    "title": "台南市：261 年首府、400 年古蹟、21 世紀晶片，疊在同一片土地上",
    "lat": 23.004671,
    "lng": 120.230681,
    "category": "geography",
    "region": "south",
    "link": "/geography/%E5%8F%B0%E5%8D%97%E5%B8%82",
    "lang": "zh-TW",
    "desc": "1624 年荷蘭人在大員的沙丘上開始蓋熱蘭遮城，1662 年 2 月 1 日揆一在這座城簽下降書、2 月 9 日帶著兩千個荷蘭人離開海灘。1665 年陳永華建孔廟，成「全台首學」。1684 年清廷設台灣府於今台南，1885 年台灣建省、省會北移台北，261 年的首府身分結束。1947 年 3 月 13 日中午湯德章在民生綠園被五花大綁押上卡車遊街、然後三聲槍響。2010 年 12 月 25 日縣市合併變 37 區、186 萬人。2023 年南科年營業額一兆五千億超越竹科。三層歷史壓在同一片嘉南平原中段。",
    "city": "台南"
  },
  {
    "title": "台東縣：兩個離島，一個關了三十六年政治犯，一個存了四十二年核廢料",
    "lat": 22.035111,
    "lng": 121.551142,
    "category": "geography",
    "region": "east",
    "link": "/geography/%E5%8F%B0%E6%9D%B1%E7%B8%A3",
    "lang": "zh-TW",
    "desc": "台東縣 21 萬人散在 3,515 平方公里上，全國最低密度，每平方公里只住 60 個人，是台北的百分之一。但這個縣藏著台灣最早的人類聚落（卑南遺址 5,300 年前 1,600 具石棺）、住著六個原住民族（阿美、卑南、排灣、魯凱、布農、達悟）、原住民人口比例 37.5% 全台最高。1951 到 1987 年，綠島火燒島關了三十六年政治犯。1982 年 5 月起，蘭嶼龍門開始接收核廢料，四十二年後 97,672 桶還在那裡。1968 年 8 月 25 日，紅葉村七個布農族孩子以七比零打敗日本關西少棒明星隊（不是世界冠軍隊），台灣棒球國球神話從這場欺瞞開始。兩個離島承擔了一整座島的代價。",
    "city": "台東"
  },
  {
    "title": "台灣五大地形與地理結構：從山脈到平原的島嶼風貌",
    "lat": 23.463342,
    "lng": 120.952365,
    "category": "geography",
    "region": "central",
    "link": "/geography/%E5%8F%B0%E7%81%A3%E4%BA%94%E5%A4%A7%E5%9C%B0%E5%BD%A2%E8%88%87%E5%9C%B0%E7%90%86%E7%B5%90%E6%A7%8B",
    "lang": "zh-TW",
    "desc": "探索台灣獨特的地理結構，從中央山脈到西部平原，認識這座島嶼的地形多樣性",
    "city": "南投"
  },
  {
    "title": "台灣國家風景區系統",
    "lat": 23.863,
    "lng": 120.917,
    "category": "geography",
    "region": "central",
    "link": "/geography/%E5%8F%B0%E7%81%A3%E5%9C%8B%E5%AE%B6%E9%A2%A8%E6%99%AF%E5%8D%80%E7%B3%BB%E7%B5%B1",
    "lang": "zh-TW",
    "desc": "一個「國家級」標籤下的觀光優先實驗：13處風景區如何在保育與開發間走鋼索",
    "city": "南投"
  },
  {
    "title": "台灣地圖怎麼讀：從番薯到衛星的四百年",
    "lat": 24.449,
    "lng": 118.377,
    "category": "geography",
    "region": "islands",
    "link": "/geography/%E5%8F%B0%E7%81%A3%E5%9C%B0%E5%9C%96%E6%80%8E%E9%BA%BC%E8%AE%80",
    "lang": "zh-TW",
    "desc": "1554 年，一個葡萄牙製圖師在八張羊皮上畫出了一座叫「I. Fremosa」的模糊島嶼。他從沒踏上過這座島。四百七十年後，Google Maps 顯示的台灣長什麼樣，取決於你人在哪個國家——這不是技術問題，是政治。",
    "city": "金門"
  },
  {
    "title": "台灣島嶼地理特色與形成",
    "lat": 23.51433,
    "lng": 120.707456,
    "category": "geography",
    "region": "south",
    "link": "/geography/%E5%8F%B0%E7%81%A3%E5%B3%B6%E5%B6%BC%E5%9C%B0%E7%90%86%E7%89%B9%E8%89%B2%E8%88%87%E5%BD%A2%E6%88%90",
    "lang": "zh-TW",
    "desc": "探索台灣獨特的島嶼地理特色，從板塊運動到地形結構，了解福爾摩沙島的自然奧秘",
    "city": "嘉義"
  },
  {
    "title": "台灣板塊運動與地震活動",
    "lat": 25.025722,
    "lng": 121.561644,
    "category": "geography",
    "region": "north",
    "link": "/geography/%E5%8F%B0%E7%81%A3%E6%9D%BF%E5%A1%8A%E9%81%8B%E5%8B%95%E8%88%87%E5%9C%B0%E9%9C%87%E6%B4%BB%E5%8B%95",
    "lang": "zh-TW",
    "desc": "探討台灣位於歐亞板塊與菲律賓海板塊交界的地質特性，以及造成頻繁地震活動的原因",
    "city": "台北"
  },
  {
    "title": "台灣水庫與水資源管理",
    "lat": 25.02705,
    "lng": 121.572809,
    "category": "geography",
    "region": "north",
    "link": "/geography/%E5%8F%B0%E7%81%A3%E6%B0%B4%E5%BA%AB%E8%88%87%E6%B0%B4%E8%B3%87%E6%BA%90%E7%AE%A1%E7%90%86",
    "lang": "zh-TW",
    "desc": "從缺水危機到水庫淤積，台灣水資源的挑戰與南北分配不均的困境",
    "city": "台北"
  },
  {
    "title": "台灣河川系統與水文特色：短急流與季節變遷的水文地理",
    "lat": 25.164163,
    "lng": 121.437277,
    "category": "geography",
    "region": "north",
    "link": "/geography/%E5%8F%B0%E7%81%A3%E6%B2%B3%E5%B7%9D%E7%B3%BB%E7%B5%B1%E8%88%87%E6%B0%B4%E6%96%87%E7%89%B9%E8%89%B2",
    "lang": "zh-TW",
    "desc": "探索台灣獨特的河川系統，從濁水溪到高屏溪，了解島嶼地形如何塑造台灣的水文特色",
    "city": "新北"
  },
  {
    "title": "台灣海岸地形與海洋地景",
    "lat": 23.471551,
    "lng": 120.959804,
    "category": "geography",
    "region": "central",
    "link": "/geography/%E5%8F%B0%E7%81%A3%E6%B5%B7%E5%B2%B8%E5%9C%B0%E5%BD%A2%E8%88%87%E6%B5%B7%E6%B4%8B%E5%9C%B0%E6%99%AF",
    "lang": "zh-TW",
    "desc": "在地球上，很少有地方能讓你從近4,000公尺的山頂出發，不到150公里就墜入7,500公尺深的海溝。台灣可以。這座島嶼的海岸線，是一場仍在進行的車禍現場——美到令人窒息。",
    "city": "南投"
  },
  {
    "title": "台灣溫泉地景",
    "lat": 22.695,
    "lng": 121.032,
    "category": "geography",
    "region": "east",
    "link": "/geography/%E5%8F%B0%E7%81%A3%E6%BA%AB%E6%B3%89%E5%9C%B0%E6%99%AF",
    "lang": "zh-TW",
    "desc": "從『女巫湯』到全球前15溫泉王國，板塊碰撞如何煮出這座島的療癒密碼",
    "city": "台東"
  },
  {
    "title": "台灣生態多樣性熱點",
    "lat": 23.474497,
    "lng": 120.951703,
    "category": "geography",
    "region": "central",
    "link": "/geography/%E5%8F%B0%E7%81%A3%E7%94%9F%E6%85%8B%E5%A4%9A%E6%A8%A3%E6%80%A7%E7%86%B1%E9%BB%9E",
    "lang": "zh-TW",
    "desc": "3.6 萬平方公里島嶼擠下 5.9 萬種生物，密度是全球平均值的 100 倍",
    "city": "南投"
  },
  {
    "title": "台灣行政區劃：從「地方會議」到「五都」的權力拼圖",
    "lat": 23.476853,
    "lng": 120.452113,
    "category": "geography",
    "region": "south",
    "link": "/geography/%E5%8F%B0%E7%81%A3%E8%A1%8C%E6%94%BF%E5%8D%80%E5%8A%83",
    "lang": "zh-TW",
    "desc": "台灣行政區劃不只是地圖上的線條，更是一場跨越四百年的權力實驗。從荷西時期的部落議會，到日治時期的「五州三廳」雅化運動，再到戰後差點出現的「爽文市」，每一道邊界背後都藏著統治意志與地方認同的拉扯。",
    "city": "嘉義"
  },
  {
    "title": "台灣農業地景與產業分布",
    "lat": 22.674838,
    "lng": 120.478149,
    "category": "geography",
    "region": "south",
    "link": "/geography/%E5%8F%B0%E7%81%A3%E8%BE%B2%E6%A5%AD%E5%9C%B0%E6%99%AF%E8%88%87%E7%94%A2%E6%A5%AD%E5%88%86%E5%B8%83",
    "lang": "zh-TW",
    "desc": "從北到南的農業地景變化，彰顯台灣從「台灣穀倉」到「精緻農業」的轉型之路",
    "city": "屏東"
  },
  {
    "title": "台灣都市發展與城鄉差距",
    "lat": 25.040217,
    "lng": 121.568714,
    "category": "geography",
    "region": "north",
    "link": "/geography/%E5%8F%B0%E7%81%A3%E9%83%BD%E5%B8%82%E7%99%BC%E5%B1%95%E8%88%87%E5%9F%8E%E9%84%89%E5%B7%AE%E8%B7%9D",
    "lang": "zh-TW",
    "desc": "70年從農業島變都市島，六都集中7成人口的光與影：繁榮台中vs凋零雲林的殘酷對比",
    "city": "台北"
  },
  {
    "title": "嘉義市：被皇帝賜名嘉義，卻成了最容易被略過的省轄市",
    "lat": 23.485445,
    "lng": 120.448259,
    "category": "geography",
    "region": "south",
    "link": "/geography/%E5%98%89%E7%BE%A9%E5%B8%82",
    "lang": "zh-TW",
    "desc": "清乾隆 52 年詔書下「諸羅」改名「嘉義」，全台唯一一座皇帝親賜名字的城。1908 年日本人在這座城西南 3.3 公里的稻田裡，立下全球第一座北回歸線標塔。1931 年嘉義農林的三族雜牌軍打進甲子園準優勝。1947 年 3 月 25 日，畫家陳澄波被綁在火車站前槍決，遺體在街上放了三天。今天嘉義市 26 萬人、60 平方公里，沒有高鐵站、被嘉義縣完整包圍，是台灣中型城市的標本。",
    "city": "嘉義"
  },
  {
    "title": "嘉義縣：49 萬人把臉借給阿里山，縣治在太保也沒人記得",
    "lat": 23.4827,
    "lng": 120.455368,
    "category": "geography",
    "region": "south",
    "link": "/geography/%E5%98%89%E7%BE%A9%E7%B8%A3",
    "lang": "zh-TW",
    "desc": "凌晨五點，東石外海的蚵棚還在水裡，全國一半的牡蠣從這片海來。一百公里外的阿里山，1912 年通車到二萬坪的森林鐵路全長 66.6 公里。中間的太保高鐵站旁，故宮南院蓋了 15 年才開館，2018 年訪客 76 萬人。1991 年嘉義縣治從嘉義市遷到太保時，全國認為嘉義就是嘉義市。三十五年過去，這個縣 49 萬人圍繞著被切割出去的 27 萬市，老化指數 174% 全台第一。",
    "city": "嘉義"
  },
  {
    "title": "地形與地質",
    "lat": 23.476408,
    "lng": 120.954826,
    "category": "geography",
    "region": "central",
    "link": "/geography/%E5%9C%B0%E5%BD%A2%E8%88%87%E5%9C%B0%E8%B3%AA",
    "lang": "zh-TW",
    "desc": "600萬年的島嶼，藏著2億年的古老記憶 — 全球最年輕造山帶與最劇烈板塊碰撞的奇蹟",
    "city": "南投"
  },
  {
    "title": "城市特色與區域文化",
    "lat": 25.030307,
    "lng": 121.559261,
    "category": "geography",
    "region": "north",
    "link": "/geography/%E5%9F%8E%E5%B8%82%E7%89%B9%E8%89%B2%E8%88%87%E5%8D%80%E5%9F%9F%E6%96%87%E5%8C%96",
    "lang": "zh-TW",
    "desc": "從台北的國際都會到台南的古都風情，台灣各城市如何形塑獨特的地方認同",
    "city": "台北"
  },
  {
    "title": "基隆市：離台北最近的港口，最被台北看不見",
    "lat": 25.134322,
    "lng": 121.745713,
    "category": "geography",
    "region": "north",
    "link": "/geography/%E5%9F%BA%E9%9A%86%E5%B8%82",
    "lang": "zh-TW",
    "desc": "凌晨四點的崁仔頂魚市還在拍賣聲裡。糶手用閩南語喊價，幾秒鐘內一籃魚從花蓮、宜蘭、八斗子的漁船上換到台北東區的日本料理店。1626 年西班牙人在和平島插下旗子，1875 年沈葆楨把「雞籠」改成「基地昌隆」，1984 年這裡是世界第七大貨櫃港。然後三件事同時發生：高雄港超越、桃機啟用、礦業圈崩解。今天 36 萬人住這裡，39% 通勤到台北上班。台北看見的是衰退，海洋看見的是一座從沒離開過位置的港口。",
    "city": "基隆"
  },
  {
    "title": "宜蘭縣：兩次選擇了自己的命運，蘭陽平原從此沒回頭",
    "lat": 24.759835,
    "lng": 121.752492,
    "category": "geography",
    "region": "north",
    "link": "/geography/%E5%AE%9C%E8%98%AD%E7%B8%A3",
    "lang": "zh-TW",
    "desc": "1987 年 12 月 13 日晚上，陳定南在華視棚內坐到王永慶對面，把六輕擋在蘭陽平原外。十九年後 2006 年 6 月 16 日，雪山隧道通車，台北到宜蘭的車程從兩小時被砍到 40 分鐘。然後通車十年內這片米倉長出 6,137 棟農舍，每坪地價從 4,000 元跳到 20,000 元，2023 年宜蘭一個縣核發了全台 35% 的農舍建照。一個地方兩次在歷史的關鍵時刻做了選擇，蘭陽平原把代價跟禮物一起收下。",
    "city": "宜蘭"
  },
  {
    "title": "屏東縣：國家命運轉折發生在這裡，台北從來沒怎麼記得",
    "lat": 22.682053,
    "lng": 120.489003,
    "category": "geography",
    "region": "south",
    "link": "/geography/%E5%B1%8F%E6%9D%B1%E7%B8%A3",
    "lang": "zh-TW",
    "desc": "1874 年 5 月 22 日，日本中佐佐久間左馬太帶 150 人摸進石門狹谷，排灣族頭目阿祿古父子戰死。這場仗讓清廷翻轉治台政策，沈葆楨來設恆春縣、1883 年蓋鵝鑾鼻燈塔。78 萬人散在屏東縣 33 鄉鎮市，5 個原住民族跟客家六堆 6 鄉鎮同住。2009 年清晨四點半，林邊水閘擋不住了。改變台灣的歷史從這個半島出發兩次，但首都記住的只剩墾丁春吶。",
    "city": "屏東"
  },
  {
    "title": "彰化縣：打敗過杜邦，留不住年輕人的農業大縣",
    "lat": 24.056018,
    "lng": 120.432247,
    "category": "geography",
    "region": "central",
    "link": "/geography/%E5%BD%B0%E5%8C%96%E7%B8%A3",
    "lang": "zh-TW",
    "desc": "1709 年施世榜把濁水溪的水引上來，灌出全台第一個大型水利系統，比八田與一的嘉南大圳早 211 年。1723 年雍正元年從諸羅縣分出，南截虎尾、北抵大甲，這是彰化建置的起點。1786 年林爽文兵臨彰化縣城，鹿港沒陷。1788 年乾隆下詔在鹿港官費建天后宮（新祖宮）。1922 年扇形車庫啟用。1986 年鹿港人趕走美商杜邦，台灣第一個環保運動。2026 年 4 月彰化縣人口 120 萬 6,458 人，跌破升格直轄市門檻。",
    "city": "彰化"
  },
  {
    "title": "擎天崗：草原、碉堡與水牛的百年拉鋸",
    "lat": 25.038062,
    "lng": 121.568047,
    "category": "geography",
    "region": "north",
    "link": "/geography/%E6%93%8E%E5%A4%A9%E5%B4%97",
    "lang": "zh-TW",
    "desc": "從凱達格蘭人的獵場到清領「河南勇」的駐防，從日治大嶺峠牧場的繁盛到蔣經國命名「擎天崗」的軍事意涵，這片火山草原不僅是台北人的後花園，更是軍事、畜牧、生態保護與人牛共存等多元意志的百年交戰現場。2020年冬季的水牛死亡事件，揭示了國家公園管理中「人牛分離」政策的深層代價，以及人與自然共存的永恆叩問。",
    "city": "台北"
  },
  {
    "title": "新北市：包圍台北的環狀都會，401 萬人撐起首都的通勤、工業跟記憶",
    "lat": 25.162252,
    "lng": 121.440203,
    "category": "geography",
    "region": "north",
    "link": "/geography/%E6%96%B0%E5%8C%97%E5%B8%82",
    "lang": "zh-TW",
    "desc": "淡水紅毛城從 1628 年西班牙人砌下第一塊磚開始，已經 398 年。比 1875 年沈葆楨設台北府早 247 年。今天新北市 29 區包圍台北市 12 區，401 萬人住在這座全台最大的直轄市裡，39 萬人跨縣市通勤到台北上班。但這座「環狀都會」不是台北的睡眠城——它有 1853 年板橋林家、1869 年從淡水出去的烏龍茶賣到紐約、1890 年代亞洲第一金礦九份金瓜石、1929 年運煤的平溪鐵路、1947 年李梅樹開始的三峽祖師廟雕刻、烏來泰雅族德拉楠部落。新北是台灣 400 年的縮影，剛好不在台北市裡。",
    "city": "新北"
  },
  {
    "title": "新竹市：1733 年種竹為城的竹塹，1980 年長出台積電的搖籃",
    "lat": 24.79919,
    "lng": 120.975548,
    "category": "geography",
    "region": "north",
    "link": "/geography/%E6%96%B0%E7%AB%B9%E5%B8%82",
    "lang": "zh-TW",
    "desc": "1733 年雍正十一年，淡水同知徐治民在四週遍植莿竹，圍出 1408 公尺的圓形土城。1829 年磚石城落成，東門迎曦門至今還站在護城河旁。247 年後，1980 年 12 月 15 日，蔣經國在距離迎曦門 5 公里的地方剪下台灣第一座科學園區的紅綵。1953 到 1974 年之間，黑蝙蝠中隊 148 人從這座風城起飛去偵察中國大陸，再也沒回來。45 萬人住的省轄市，撐起冷戰前線、北部最早建城、兩所頂尖大學、跟全球半導體 90% 高階晶片的起點。風城這個綽號很文學，但這座城裡所有產業都跟風有關。",
    "city": "新竹"
  },
  {
    "title": "新竹縣：235 年的義民信仰，與全台第一的人均所得，住在同一條頭前溪",
    "lat": 24.797104,
    "lng": 120.973194,
    "category": "geography",
    "region": "north",
    "link": "/geography/%E6%96%B0%E7%AB%B9%E7%B8%A3",
    "lang": "zh-TW",
    "desc": "1788 年冬天新埔的山坡上奠基一座褒忠亭，要把林爽文之役死難的兩百多名客家義民合葬。235 年後，義民節農曆七月二十日的十五聯庄輪值祭典還在跑。5 公里外的竹北市，2025 年人均所得 144.2 萬元拿下全台 368 個鄉鎮市區的第一名，磁吸對象是台積電寶山二期 2 奈米晶圓廠。新竹縣 67.8% 是客家人，全台最高。但縣治竹北 22 萬人裡，買得起自己家鄉房子的客家年輕人正在變少。",
    "city": "新竹"
  },
  {
    "title": "日月潭：在 18.18 公尺水位之下，被淹沒與被看見的台灣之心",
    "lat": 23.855216,
    "lng": 120.910809,
    "category": "geography",
    "region": "central",
    "link": "/geography/%E6%97%A5%E6%9C%88%E6%BD%AD",
    "lang": "zh-TW",
    "desc": "2026 年的日月潭，是全球最大的抽蓄發電電池，也是邵族人失落的祖靈地。從 1934 年水位上升 18.18 公尺改變地貌開始，這座湖泊在觀光勝地與能源心臟之間，承載了百年來的族群遷徙與電力奇蹟。",
    "city": "南投"
  },
  {
    "title": "林口新市鎮：從「鬼城」到北台灣新興都會的蛻變與挑戰",
    "lat": 25.03809,
    "lng": 121.557708,
    "category": "geography",
    "region": "north",
    "link": "/geography/%E6%9E%97%E5%8F%A3%E6%96%B0%E5%B8%82%E9%8E%AE",
    "lang": "zh-TW",
    "desc": "1970年代，台灣政府為緩解台北人口壓力，在林口台地規劃了「田園城市」新市鎮。歷經數十年發展，這個曾因交通不便、機能不足被戲稱為「鬼城」的區域，在2017年機場捷運通車後，人口快速成長，產業升級，成為北台灣最年輕、最具活力的都會區之一。然而，交通壅塞與氣候濕冷等挑戰仍待克服。",
    "city": "台北"
  },
  {
    "title": "桃園市：台灣的進出口、最多的客家人、最多的移工，全在這塊台地上",
    "lat": 25.001227,
    "lng": 121.307043,
    "category": "geography",
    "region": "north",
    "link": "/geography/%E6%A1%83%E5%9C%92%E5%B8%82",
    "lang": "zh-TW",
    "desc": "1977 年 11 月 19 日傍晚，上萬民眾包圍中壢分局，警方開槍打死中央大學學生江文國跟 19 歲張治平，許信良以 23 萬比 14 萬高票當選桃園縣長。一年三個月後，1979 年 2 月 26 日中正國際機場啟用，台灣的對外大門從基隆港搬到這片台地。2014 年 12 月 25 日，桃園升格成第六都，是六都裡最後一個。今天 235 萬人住在這 1,221 平方公里的台地上，客家逾八十萬全國最多，移工 13 萬 2,158 人也全國最多。桃園是台灣最多元的邊界。",
    "city": "桃園"
  },
  {
    "title": "台灣氣候",
    "lat": 23.504695,
    "lng": 120.706884,
    "category": "geography",
    "region": "south",
    "link": "/geography/%E6%B0%A3%E5%80%99",
    "lang": "zh-TW",
    "desc": "年降雨量是全球平均2.5倍，卻名列全球前20缺水國——台灣的氣候從來不是你想的那樣",
    "city": "嘉義"
  },
  {
    "title": "清水斷崖：板塊碰撞下的絕美傷痕與生命韌性",
    "lat": 24.158,
    "lng": 121.621,
    "category": "geography",
    "region": "east",
    "link": "/geography/%E6%B8%85%E6%B0%B4%E6%96%B7%E5%B4%96",
    "lang": "zh-TW",
    "desc": "1874年，清朝羅大春率軍開鑿蘇花古道，開啟了這段東海岸的險峻之路。清水斷崖，這座由大理岩與片麻岩構成的垂直峭壁，不僅是台灣東部地質演化的縮影，更是特有植物與海洋文學的靈感泉源，同時也面臨著環境與安全的雙重挑戰。",
    "city": "花蓮"
  },
  {
    "title": "澎湖縣：兩次拒絕賭場，菊島選擇的不是清貧",
    "lat": 23.578174,
    "lng": 119.571315,
    "category": "geography",
    "region": "islands",
    "link": "/geography/%E6%BE%8E%E6%B9%96%E7%B8%A3",
    "lang": "zh-TW",
    "desc": "2009 年 9 月 26 日，馬公開票，反對 17,359 票，賭場輸了 3,962 票。七年後 2016 又投一次，反對 81.07%。一個年雨量只有 1,000 毫米、戶籍 10.8 萬常住卻只有 8 萬的離島，把全國第一場地方博弈公投投出來，然後再投一次。同一段海域 1604 年沈有容讓荷蘭人撤退，1622 年荷蘭人從風櫃尾改去台南，1885 年法軍司令孤拔病死媽宮港。1,740 萬年的玄武岩柱還在，89 座島是黑色火山岩，1 座是更古老的安山岩。冬天的菜宅石牆裡，作物在背風處長著。",
    "city": "澎湖"
  },
  {
    "title": "玉山：從「新高山」到台灣靈魂的最高點",
    "lat": 23.470361,
    "lng": 120.961081,
    "category": "geography",
    "region": "central",
    "link": "/geography/%E7%8E%89%E5%B1%B1",
    "lang": "zh-TW",
    "desc": "1897年，日本拓殖者將它命名為「新高山」，象徵帝國超越富士山的高度野心。百年後的玉山，仍是台灣最高峰——從原住民族的聖山、清代文獻的記載、殖民地圖上的皇冠，到今日爭議中的登山聖地與環境倫理的試煉場。",
    "city": "南投"
  },
  {
    "title": "花蓮縣：129 年隱身的撒奇萊雅族，用正名換回的太魯閣，0403 又讓它遠去",
    "lat": 23.98489,
    "lng": 121.597118,
    "category": "geography",
    "region": "east",
    "link": "/geography/%E8%8A%B1%E8%93%AE%E7%B8%A3",
    "lang": "zh-TW",
    "desc": "1878 年清軍把達固湖灣部落頭目古穆·巴力克縛在茄苳樹上凌遲，撒奇萊雅族躲進阿美族裡 129 年；2004 年太魯閣族從泰雅族裡走出來成為第 12 族，2007 年陳水扁政府第二任承認撒奇萊雅成為第 13 族；2024 年 4 月 3 日早上 7 點 58 分那 98 秒，0403 地震規模 7.1 把太魯閣國家公園的燕子口、九曲洞、砂卡礑步道一次砸毀，2024 年觀光客只剩 21 萬，正常年份是 660 萬。一片山海之間最薄 5 公里的土地上，6 個原住民族的命運始終跟著板塊一起搖。",
    "city": "花蓮"
  },
  {
    "title": "苗栗縣：客家硬頸的縣，用八年選出讓縣庫翻倍負債的縣長",
    "lat": 24.565853,
    "lng": 120.823678,
    "category": "geography",
    "region": "central",
    "link": "/geography/%E8%8B%97%E6%A0%97%E7%B8%A3",
    "lang": "zh-TW",
    "desc": "日治苗栗樟腦佔全台 95%，三義用煉樟樹頭起家做木雕。2002 年公館北河村辦了第一次桐花祭。2008 年劉政鴻接下 202 億負債的縣，2014 年離任時帳面 676 億。中間發生過朱馮敏喝農藥、張藥房強拆、客家圓樓 1.2 億蓋成蚊子館。今天 53 萬人住在這個 62.5% 客家比例全台第二高的縣裡。",
    "city": "苗栗"
  },
  {
    "title": "連江縣：離台灣最遠的縣，是離冷戰最近的縣",
    "lat": 26.16,
    "lng": 119.95,
    "category": "geography",
    "region": "islands",
    "link": "/geography/%E9%80%A3%E6%B1%9F%E7%B8%A3",
    "lang": "zh-TW",
    "desc": "南竿的山頂看出去，福州城就在 16 公里外。台北在 200 公里外，連江縣治在共軍那邊。1617 年沈有容在東莒山下生擒倭寇 69 人，1956 年國軍把這 5 個島變成戰地政務區，1992 年金馬比台灣晚 5 年解嚴。今天 13,646 人住在這裡，馬祖話流失率 94%，2012 年全國唯一通過的博弈公投至今沒有下文。藍眼淚一年帶來 20 萬遊客，但在地人記得燈火管制。一個 28.8 平方公里的縣，把台灣冷戰史壓縮在自己身上。",
    "city": "馬祖"
  },
  {
    "title": "野柳：在魔鬼岬角上，一場與時間賽跑的「女王」加冕與謝幕",
    "lat": 25.206,
    "lng": 121.691,
    "category": "geography",
    "region": "north",
    "link": "/geography/%E9%87%8E%E6%9F%B3",
    "lang": "zh-TW",
    "desc": "1962 年一次岩石斷裂意外讓野柳女王頭「加冕」，但這座世界級地景正以每年 2 公分的速度消逝。從西班牙人眼中的「魔鬼岬角」到全民守護的文化地標，野柳的故事不只是地質奇觀，更是台灣人如何在自然律法與情感留戀之間，學會放手的過程。",
    "city": "新北"
  },
  {
    "title": "金瓜石：那一千個被押進坑道挖銅的英國兵，與一座還沒洗乾淨的金山",
    "lat": 25.12418,
    "lng": 121.745836,
    "category": "geography",
    "region": "north",
    "link": "/geography/%E9%87%91%E7%93%9C%E7%9F%B3",
    "lang": "zh-TW",
    "desc": "1942 年到 1945 年，超過一千名英國協戰俘被關在金瓜石「凸鼻仔寮」挖銅；1997 年 11 月 23 日，倖存者回到原址親手立下紀念碑。這座以金礦聞名的山城，最該被記得的不是黃金，而是那條至今土壤仍超標的廢煙道。",
    "city": "基隆"
  },
  {
    "title": "金門縣：1949 年那 56 小時，決定了金門 75 年的命運",
    "lat": 24.450667,
    "lng": 118.38367,
    "category": "geography",
    "region": "islands",
    "link": "/geography/%E9%87%91%E9%96%80%E7%B8%A3",
    "lang": "zh-TW",
    "desc": "金門距廈門角嶼最近處只有 1.8 公里，距台北 358 公里。1387 年江夏侯周德興在這裡建所城取「固若金湯，雄鎮海門」之意。1949 年 10 月 25 日凌晨兩點共軍三個團 9,086 人在古寧頭灘頭登陸，國軍激戰 56 小時擊退。1958 年 8 月 23 日下午五點半開始的 44 天裡，474,910 發砲彈落在 151 平方公里的島上，後續單打雙不打又打了 21 年。今天 14.5 萬人設籍金門，凌晨四點的水頭碼頭駛往廈門的船比飛台北的飛機多。葉華成的曾孫等了 67 年要一個道歉。",
    "city": "金門"
  },
  {
    "title": "離島與海洋文化：從石滬密度世界第一到飛魚季生態法律",
    "lat": 23.570556,
    "lng": 119.57343,
    "category": "geography",
    "region": "islands",
    "link": "/geography/%E9%9B%A2%E5%B3%B6%E8%88%87%E6%B5%B7%E6%B4%8B%E6%96%87%E5%8C%96",
    "lang": "zh-TW",
    "desc": "全世界石滬不到600座，澎湖就有574座。一個專門抓飛魚的島嶼民族，把禁忌變成了最精密的海洋資源管理系統",
    "city": "澎湖"
  },
  {
    "title": "雲林縣：宜蘭選擇不要的，雲林用三十年的肺換下來",
    "lat": 23.712296,
    "lng": 120.437319,
    "category": "geography",
    "region": "central",
    "link": "/geography/%E9%9B%B2%E6%9E%97%E7%B8%A3",
    "lang": "zh-TW",
    "desc": "1987 年 12 月 13 日陳定南在華視棚內把六輕擋出宜蘭，1991 年 6 月 26 日行政院核定六輕轉到雲林麥寮外海，1994 年 7 月正式動工，1998 年一期開爐，至今填海 2,255 公頃。2011 年台大公衛詹長權團隊發現六輕周邊 10 公里居民癌症發生率是全台 1.29 倍。但同一個縣裡，1694 年清康熙 33 年北港朝天宮已經拜了 332 年的媽祖，1953 年 1 月 28 日美援鋼材撐起 1,939 公尺的西螺大橋。一座縣同時是台灣最古老媽祖廟之一、最重要米倉、最大石化王國。",
    "city": "雲林"
  },
  {
    "title": "高雄市：1979 升格直轄市那一年，台北的監獄裡關著八個高雄人",
    "lat": 22.620342,
    "lng": 120.306738,
    "category": "geography",
    "region": "south",
    "link": "/geography/%E9%AB%98%E9%9B%84%E5%B8%82",
    "lang": "zh-TW",
    "desc": "1979 年 7 月 1 日高雄升格為台灣第二個直轄市，12 月 10 日世界人權日，美麗島雜誌社在大港埔圓環的演講變成催淚瓦斯下的衝突。八人被判刑，1980 年 2 月 28 日林義雄台北信義路的家裡傳出血案。同一個 1979 年，高雄拿到了行政光榮，也吞下了戰後台灣最重的政治壓制。271 萬人散在 38 區裡，旗津沙洲、那瑪夏布農族部落、中鋼煙囪、衛武營鋁合金屋頂同住一個市，這座城市花了 45 年把傷口縫成自己的形狀。",
    "city": "高雄"
  },
  {
    "title": "19 世紀的樟腦戰爭：世界要的香氣，藏在原住民的山",
    "lat": 22.99034,
    "lng": 120.16819,
    "category": "history",
    "region": "south",
    "link": "/history/19%E4%B8%96%E7%B4%80%E7%9A%84%E6%A8%9F%E8%85%A6%E6%88%B0%E7%88%AD",
    "lang": "zh-TW",
    "desc": "1864 年史溫侯在淡水寫下三個數字：6、16、28。一擔樟腦從原產地走到香港，價格翻了將近五倍。中間的差價，是道台的口袋——和原住民的山。",
    "city": "台南"
  },
  {
    "title": "三個外國人看乙未：攝影師的相冊、記者的筆記、牧師的日記",
    "lat": 22.998645,
    "lng": 120.22362,
    "category": "history",
    "region": "south",
    "link": "/history/%E4%B8%89%E5%80%8B%E5%A4%96%E5%9C%8B%E4%BA%BA%E7%9C%8B%E4%B9%99%E6%9C%AA",
    "lang": "zh-TW",
    "desc": "1895年乙未之役，三個外國人留下了這場戰爭最重要的外語目擊文獻——日本攝影師遠藤誠的勝利相冊、美國記者達飛聲的隨軍筆記、日本牧師細川瀏的渡台日記。問題不是他們看到了什麼，而是他們為誰而看。",
    "city": "台南"
  },
  {
    "title": "中正紀念堂",
    "lat": 25.031137,
    "lng": 121.516544,
    "category": "history",
    "region": "north",
    "link": "/history/%E4%B8%AD%E6%AD%A3%E7%B4%80%E5%BF%B5%E5%A0%82",
    "lang": "zh-TW",
    "desc": "它是台北市中心最巨大的政治圖騰，也是最民主的練舞場。從威權的聖殿到轉型正義的暴風眼，這座建築紀錄了台灣靈魂最劇烈的震盪。",
    "city": "台北"
  },
  {
    "title": "乙未之役：臺灣民主國的 148 天",
    "lat": 25.0285,
    "lng": 121.568766,
    "category": "history",
    "region": "north",
    "link": "/history/%E4%B9%99%E6%9C%AA%E4%B9%8B%E5%BD%B9",
    "lang": "zh-TW",
    "desc": "1895年，清廷把台灣割給日本。島上的官員宣布建立亞洲第一個共和國，但總統十天就跑了，詩人四天就走了。真正留下來打仗的，是一個19歲的客家少年和他散盡家產召來的民兵。148天後，民主國消失了，日本統治開始了。",
    "city": "台北"
  },
  {
    "title": "二二八事件",
    "lat": 22.992721,
    "lng": 120.233534,
    "category": "history",
    "region": "south",
    "link": "/history/%E4%BA%8C%E4%BA%8C%E5%85%AB%E4%BA%8B%E4%BB%B6",
    "lang": "zh-TW",
    "desc": "一個寡婦的私菸攤，如何點燃一座島嶼三十八年的沉默——1947年改變台灣命運的十天，以及七十八年後仍在癒合的傷",
    "city": "台南"
  },
  {
    "title": "台海危機與兩岸關係發展",
    "lat": 24.44903,
    "lng": 118.3766,
    "category": "history",
    "region": "islands",
    "link": "/history/%E5%8F%B0%E6%B5%B7%E5%8D%B1%E6%A9%9F%E8%88%87%E5%85%A9%E5%B2%B8%E9%97%9C%E4%BF%82%E7%99%BC%E5%B1%95",
    "lang": "zh-TW",
    "desc": "從金門阿嬤的砲彈記憶到台北年輕人的佛系日常，七十年台海危機如何塑造了台灣人的集體心理",
    "city": "金門"
  },
  {
    "title": "台灣原住民族歷史與正名運動",
    "lat": 23.502695,
    "lng": 120.69851,
    "category": "history",
    "region": "south",
    "link": "/history/%E5%8F%B0%E7%81%A3%E5%8E%9F%E4%BD%8F%E6%B0%91%E6%97%8F%E6%AD%B7%E5%8F%B2%E8%88%87%E6%AD%A3%E5%90%8D%E9%81%8B%E5%8B%95",
    "lang": "zh-TW",
    "desc": "1987年，一個19歲的鄒族青年在台北刑場被槍決。他的死，點燃了正名運動最初的火。",
    "city": "嘉義"
  },
  {
    "title": "台灣森林開發史：從資源榨取到國土保安的世紀轉向",
    "lat": 23.513588,
    "lng": 120.700416,
    "category": "history",
    "region": "south",
    "link": "/history/%E5%8F%B0%E7%81%A3%E6%A3%AE%E6%9E%97%E9%96%8B%E7%99%BC%E5%8F%B2",
    "lang": "zh-TW",
    "desc": "從清領時期的樟腦煙雲，到日治時期的鋼軌鳴響，再到戰後震撼山壑的大伐木時代。本文梳理台灣森林開發政策背後的全球地緣政治邏輯，並以資料釐清百年林業的真實真相。",
    "city": "嘉義"
  },
  {
    "title": "台灣民主轉型——威權自掘的墳墓",
    "lat": 22.627063,
    "lng": 120.299361,
    "category": "history",
    "region": "south",
    "link": "/history/%E5%8F%B0%E7%81%A3%E6%B0%91%E4%B8%BB%E8%BD%89%E5%9E%8B",
    "lang": "zh-TW",
    "desc": "每一次鎮壓都製造更多反抗者。從二二八到太陽花，一座島嶼如何讓獨裁體制親手培養出埋葬自己的力量。",
    "city": "高雄"
  },
  {
    "title": "台灣海洋貿易史",
    "lat": 22.996139,
    "lng": 120.166328,
    "category": "history",
    "region": "south",
    "link": "/history/%E5%8F%B0%E7%81%A3%E6%B5%B7%E6%B4%8B%E8%B2%BF%E6%98%93%E5%8F%B2",
    "lang": "zh-TW",
    "desc": "大航海時代的台灣，從國際貿易中心到海盜王國的興衰傳奇",
    "city": "台南"
  },
  {
    "title": "台灣白色恐怖",
    "lat": 22.655068,
    "lng": 121.504259,
    "category": "history",
    "region": "east",
    "link": "/history/%E5%8F%B0%E7%81%A3%E7%99%BD%E8%89%B2%E6%81%90%E6%80%96",
    "lang": "zh-TW",
    "desc": "38 年戒嚴不是靠幾千個特務維持的，是靠全台灣兩百萬個家庭必須互相擔保才能上班、入學、結婚的「連坐保證」制度維持的。陳智雄、施水環、高一生、柏楊——四個名字，四種被抓的理由，一個共同的機器。",
    "city": "台東"
  },
  {
    "title": "台灣眷村歷史",
    "lat": 25.036838,
    "lng": 121.561125,
    "category": "history",
    "region": "north",
    "link": "/history/%E5%8F%B0%E7%81%A3%E7%9C%B7%E6%9D%91%E6%AD%B7%E5%8F%B2",
    "lang": "zh-TW",
    "desc": "從緬甸孤軍到竹籬笆王國，120萬大遷徙如何重新定義「家」",
    "city": "台北"
  },
  {
    "title": "台灣經濟奇蹟：從農業社會到亞洲四小龍",
    "lat": 24.140647,
    "lng": 120.68128,
    "category": "history",
    "region": "central",
    "link": "/history/%E5%8F%B0%E7%81%A3%E7%B6%93%E6%BF%9F%E5%A5%87%E8%B9%9F",
    "lang": "zh-TW",
    "desc": "1960-1990年代台灣創造了舉世矚目的經濟奇蹟，從農業社會轉型為工業化國家，與韓國、香港、新加坡並列亞洲四小龍。",
    "city": "台中"
  },
  {
    "title": "台灣轉型正義",
    "lat": 22.659864,
    "lng": 121.49492,
    "category": "history",
    "region": "east",
    "link": "/history/%E5%8F%B0%E7%81%A3%E8%BD%89%E5%9E%8B%E6%AD%A3%E7%BE%A9",
    "lang": "zh-TW",
    "desc": "台灣撤銷了近六千份威權時期的有罪判決，卻幾乎沒有一個加害者被追究責任——這個落差，比白色恐怖本身更難解釋。",
    "city": "台東"
  },
  {
    "title": "台灣選舉與政黨政治",
    "lat": 25.037446,
    "lng": 121.563268,
    "category": "history",
    "region": "north",
    "link": "/history/%E5%8F%B0%E7%81%A3%E9%81%B8%E8%88%89%E8%88%87%E6%94%BF%E9%BB%A8%E6%94%BF%E6%B2%BB",
    "lang": "zh-TW",
    "desc": "從中壢事件的火光到817萬張選票，台灣如何用半個世紀把投票從戒嚴工具變成全民信仰",
    "city": "台北"
  },
  {
    "title": "台灣鐵道史：肺病鐵道、黑頭仔，以及那條失去外國名字的譜系",
    "lat": 23.506355,
    "lng": 120.695511,
    "category": "history",
    "region": "south",
    "link": "/history/%E5%8F%B0%E7%81%A3%E9%90%B5%E9%81%93%E5%8F%B2",
    "lang": "zh-TW",
    "desc": "一條被日本人罵是「肺病鐵道」的爛路，如何在一百多年間變成每天載運二十萬人的高速動脈。劉銘傳聘的德英工程師後來被日本人砍掉重練，長谷川謹介的縱貫線又被戰後台鐵改名換編號，每一代都把上一代的紀錄推到注腳；外國名字一路掉漆，剩下台語的「黑頭仔」「火車仔」、剩下莒光自強復興的政治口號，最後在普悠瑪太魯閣這一代才把原住民地名鋪回鐵軌上。",
    "city": "嘉義"
  },
  {
    "title": "心戰：從金門播音牆到 AI 認知作戰的範式轉移",
    "lat": 24.448902,
    "lng": 118.382906,
    "category": "history",
    "region": "islands",
    "link": "/history/%E5%BF%83%E6%88%B0",
    "lang": "zh-TW",
    "desc": "從 1960 年代金門播音牆的鄧麗君喊話、空飄「投誠食品」，到 2026 年數位時代的資訊穿透與 AI 認知操弄，兩岸心戰已從物理物資誘利演變為數位語意攻防。本文詳盡梳理台灣對中歷史心戰脈絡、具體物資清單，並對比當前 AI 工業化階段的挑戰。",
    "city": "金門"
  },
  {
    "title": "日治時期",
    "lat": 22.633518,
    "lng": 120.302335,
    "category": "history",
    "region": "south",
    "link": "/history/%E6%97%A5%E6%B2%BB%E6%99%82%E6%9C%9F",
    "lang": "zh-TW",
    "desc": "1895-1945年日本統治台灣50年，帶來全面現代化建設與制度化管理，同時實施同化政策，深刻影響台灣社會發展",
    "city": "高雄"
  },
  {
    "title": "日治時期臺灣社會運動",
    "lat": 25.063483,
    "lng": 121.510081,
    "category": "history",
    "region": "north",
    "link": "/history/%E6%97%A5%E6%B2%BB%E6%99%82%E6%9C%9F%E8%87%BA%E7%81%A3%E7%A4%BE%E6%9C%83%E9%81%8B%E5%8B%95",
    "lang": "zh-TW",
    "desc": "帝國警察的監控文件裡，藏著一張台灣人如何反抗的地圖。1920年代，議會請願、農民組合、地下黨，三條路線同時燃起，卻燒向彼此",
    "city": "台北"
  },
  {
    "title": "民主化",
    "lat": 22.621507,
    "lng": 120.306033,
    "category": "history",
    "region": "south",
    "link": "/history/%E6%B0%91%E4%B8%BB%E5%8C%96",
    "lang": "zh-TW",
    "desc": "1980年3月18日，高雄軍事法庭上，施明德放棄了六萬字答辯書，改口要求法官判他死刑。同一場審判中，替被告辯護的年輕律師陳水扁、謝長廷、蘇貞昌，二十年後全部當上了總統或行政院長。一場本該殺雞儆猴的審判，意外製造了台灣下一個世代的政治領袖。",
    "city": "高雄"
  },
  {
    "title": "淡江中學：一座校園，如何濃縮台灣近代教育史",
    "lat": 25.162495,
    "lng": 121.434823,
    "category": "history",
    "region": "north",
    "link": "/history/%E6%B7%A1%E6%B1%9F%E4%B8%AD%E5%AD%B8",
    "lang": "zh-TW",
    "desc": "淡江中學最值得寫的，不是它夠老，而是它把宣教、女子教育與殖民體制的拉扯，都留在同一座校園裡。",
    "city": "新北"
  },
  {
    "title": "清治時期",
    "lat": 24.082188,
    "lng": 120.531528,
    "category": "history",
    "region": "central",
    "link": "/history/%E6%B8%85%E6%B2%BB%E6%99%82%E6%9C%9F",
    "lang": "zh-TW",
    "desc": "1683-1895年清朝統治台灣約212年，從消極治理到積極建設，奠定現代台灣行政區劃與漢人社會基礎",
    "city": "彰化"
  },
  {
    "title": "清法戰爭：基隆與淡水的八個月",
    "lat": 25.163876,
    "lng": 121.439104,
    "category": "history",
    "region": "north",
    "link": "/history/%E6%B8%85%E6%B3%95%E6%88%B0%E7%88%AD",
    "lang": "zh-TW",
    "desc": "1884年秋天，法國艦隊砲轟基隆港，兩千名海軍陸戰隊登陸，佔領了港口。但他們花了七個月，始終走不出基隆的山嶺。同一週，600名法軍水兵在淡水登陸，兩小時內被趕回海上。戰爭結束時，法國拿到了越南，放棄了台灣。清廷差點輸掉，卻因此讓台灣從附屬變成一個省。",
    "city": "新北"
  },
  {
    "title": "擎天崗的19頭牛：從源興牛到台南牛肉湯，一座島嶼的肉牛突圍",
    "lat": 22.997037,
    "lng": 120.220728,
    "category": "history",
    "region": "south",
    "link": "/history/%E6%BA%90%E8%88%88%E7%89%9B%E8%88%87%E7%89%9B%E8%82%89%E6%B9%AF%E7%9A%84%E6%AD%B7%E5%8F%B2",
    "lang": "zh-TW",
    "desc": "台灣牛肉自給率僅4.6%，卻在2024年誕生全國第一個民間認證牛品種。源興牛的故事，是一個94歲的老人、19頭野生黑牛、和一碗凌晨的溫體湯共同寫成的產業突圍劇本。",
    "city": "台南"
  },
  {
    "title": "綠島監獄：從政治黑牢到大哥故鄉的記憶疊影",
    "lat": 22.665771,
    "lng": 121.49343,
    "category": "history",
    "region": "east",
    "link": "/history/%E7%B6%A0%E5%B3%B6%E7%9B%A3%E7%8D%84",
    "lang": "zh-TW",
    "desc": "綠島，這座太平洋上的孤島，曾是白色恐怖時期政治犯的煉獄，也是黑道大哥的最終歸宿。從新生訓導處到崇德新村，綠島監獄的歷史如何疊影出台灣社會的矛盾與記憶？",
    "city": "台東"
  },
  {
    "title": "羅發號事件：181人打不下的仗，卓杞篤用45分鐘談完",
    "lat": 22.006,
    "lng": 120.745,
    "category": "history",
    "region": "south",
    "link": "/history/%E7%BE%85%E7%99%BC%E8%99%9F%E4%BA%8B%E4%BB%B6%E8%88%87%E5%8D%93%E6%9D%9E%E7%AF%A4",
    "lang": "zh-TW",
    "desc": "1867年美軍181人在恆春半島叢林中被排灣族擊退，帶隊指揮官陣亡。三個月後，瑯嶠十八社大頭目卓杞篤坐下來，用45分鐘談成了南岬之盟。這份協議讓族人暫時免於滅族，但締約的另一方李仙得，七年後帶著同一份情報跳槽日本帝國，協助策劃了1874年的出兵。",
    "city": "屏東"
  },
  {
    "title": "美麗島事件",
    "lat": 22.631346,
    "lng": 120.308829,
    "category": "history",
    "region": "south",
    "link": "/history/%E7%BE%8E%E9%BA%97%E5%B3%B6%E4%BA%8B%E4%BB%B6",
    "lang": "zh-TW",
    "desc": "一場本應讓反對運動徹底崩潰的軍事審判，因公開轉播意外成為台灣民主最有力的宣傳片。",
    "city": "高雄"
  },
  {
    "title": "臺灣前途決議文：兩個字「目前」，撐了二十七年",
    "lat": 22.630636,
    "lng": 120.297744,
    "category": "history",
    "region": "south",
    "link": "/history/%E8%87%BA%E7%81%A3%E5%89%8D%E9%80%94%E6%B1%BA%E8%AD%B0%E6%96%87",
    "lang": "zh-TW",
    "desc": "1999 年，林濁水在「國號中華民國」前加了「目前」兩個字，扁系很不高興。兩個字同時安撫獨派和中間選民，為 2000 年首次政黨輪替打開了門。二十七年後，台灣年輕人覺得「台灣本來就是獨立的」是常識，卻不知道這份常識出自一份充滿模糊的文件。",
    "city": "高雄"
  },
  {
    "title": "荷西明鄭時期",
    "lat": 23.001289,
    "lng": 120.23218,
    "category": "history",
    "region": "south",
    "link": "/history/%E8%8D%B7%E8%A5%BF%E6%98%8E%E9%84%AD%E6%99%82%E6%9C%9F",
    "lang": "zh-TW",
    "desc": "1624 年荷蘭人在臺南建立熱蘭遮城，到 1683 年施琅登陸澎湖為止——臺灣被寫進世界貿易地圖的六十年，和四個政權輪替的故事",
    "city": "台南"
  },
  {
    "title": "阿里山：帝國的林場與高一生的山",
    "lat": 23.515267,
    "lng": 120.706979,
    "category": "history",
    "region": "south",
    "link": "/history/%E9%98%BF%E9%87%8C%E5%B1%B1%EF%BC%9A%E5%B8%9D%E5%9C%8B%E7%9A%84%E6%9E%97%E5%A0%B4%E8%88%87%E9%AB%98%E4%B8%80%E7%94%9F%E7%9A%84%E5%B1%B1",
    "lang": "zh-TW",
    "desc": "1954 年 4 月 17 日，鄒族菁英高一生在安坑刑場被槍決。阿里山這座被稱為觀光勝地的山脈，其實是一座被兩個帝國先後改寫過的記憶之山。",
    "city": "嘉義"
  },
  {
    "title": "MTV：在包廂裡，看電影從來不是重點",
    "lat": 25.04747,
    "lng": 121.514106,
    "category": "lifestyle",
    "region": "north",
    "link": "/lifestyle/MTV%E5%8C%85%E5%BB%82",
    "lang": "zh-TW",
    "desc": "1985 年台北「超感性MTV視聽中心」首創木板隔間，把電影院搬進一張沙發大小的房間。1988 年全台 600 多家，1992 年美國「特別 301」一刀劈下，太陽系 MTV 拉下鐵門。包廂留下的不是電影，是一整代台灣人對「私密空間」的第一次想像。",
    "city": "台北"
  },
  {
    "title": "台灣 YouBike 文化與城市微交通革命",
    "lat": 25.031211,
    "lng": 121.558038,
    "category": "lifestyle",
    "region": "north",
    "link": "/lifestyle/%E5%8F%B0%E7%81%A3YouBike%E6%96%87%E5%8C%96%E8%88%87%E5%9F%8E%E5%B8%82%E5%BE%AE%E4%BA%A4%E9%80%9A%E9%9D%A9%E5%91%BD",
    "lang": "zh-TW",
    "desc": "從「最後一哩」到日常基礎設施，YouBike 如何用小額費率、密集站點與即時調度，改變台灣城市的移動習慣與時間感。",
    "city": "台北"
  },
  {
    "title": "台灣交通系統：一座島嶼怎麼把自己壓縮成 90 分鐘",
    "lat": 25.037329,
    "lng": 121.55952,
    "category": "lifestyle",
    "region": "north",
    "link": "/lifestyle/%E5%8F%B0%E7%81%A3%E4%BA%A4%E9%80%9A%E7%B3%BB%E7%B5%B1",
    "lang": "zh-TW",
    "desc": "1946 年台灣一夜之間從左駕變右駕。中央山脈縱貫南北 273 公里，把 36,000 平方公里的島切成東西兩半。六十年後高鐵把 394 公里壓成 90 分鐘，雪山隧道把宜蘭從 2 小時車程縮成 40 分鐘。再十年後，一千四百萬輛機車塞滿了每一個路口。這座島嶼的交通故事，就是它的身份故事。",
    "city": "台北"
  },
  {
    "title": "台灣便利商店文化",
    "lat": 25.03586,
    "lng": 121.561054,
    "category": "lifestyle",
    "region": "north",
    "link": "/lifestyle/%E5%8F%B0%E7%81%A3%E4%BE%BF%E5%88%A9%E5%95%86%E5%BA%97%E6%96%87%E5%8C%96",
    "lang": "zh-TW",
    "desc": "密度全球前列的便利商店王國，7-11與全家的在地化創新，重新定義現代生活方式",
    "city": "台北"
  },
  {
    "title": "台灣公園與日常休閒",
    "lat": 25.035638,
    "lng": 121.563322,
    "category": "lifestyle",
    "region": "north",
    "link": "/lifestyle/%E5%8F%B0%E7%81%A3%E5%85%AC%E5%9C%92%E8%88%87%E6%97%A5%E5%B8%B8%E4%BC%91%E9%96%92",
    "lang": "zh-TW",
    "desc": "從清晨太極到夜間散步——台灣公園作為跨世代社交場域的文化觀察",
    "city": "台北"
  },
  {
    "title": "追垃圾車的島：台灣從垃圾危機到回收奇蹟",
    "lat": 25.038031,
    "lng": 121.565109,
    "category": "lifestyle",
    "region": "north",
    "link": "/lifestyle/%E5%8F%B0%E7%81%A3%E5%9B%9E%E6%94%B6%E8%88%87%E8%B3%87%E6%BA%90%E5%BE%AA%E7%92%B0%E6%96%87%E5%8C%96",
    "lang": "zh-TW",
    "desc": "一個1990年代有400座快滿的掩埋場、被國際媒體稱為「垃圾島」的地方，用貝多芬的音樂讓2,300萬人每天追垃圾車，30年後資源回收率超越多數歐洲國家",
    "city": "台北"
  },
  {
    "title": "當古典音樂變成垃圾車廣告歌：台灣最浪漫的環保革命",
    "lat": 25.03113,
    "lng": 121.566688,
    "category": "lifestyle",
    "region": "north",
    "link": "/lifestyle/%E5%8F%B0%E7%81%A3%E5%9E%83%E5%9C%BE%E8%BB%8A%E9%9F%B3%E6%A8%82",
    "lang": "zh-TW",
    "desc": "外國人聽到垃圾車播貝多芬的震驚表情，背後是台灣從「垃圾島」蛻變成環保模範的神奇故事",
    "city": "台北"
  },
  {
    "title": "台灣捷運發展史：一部用血與錢寫成的城市進化論",
    "lat": 25.037976,
    "lng": 121.560229,
    "category": "lifestyle",
    "region": "north",
    "link": "/lifestyle/%E5%8F%B0%E7%81%A3%E6%8D%B7%E9%81%8B%E7%99%BC%E5%B1%95%E5%8F%B2",
    "lang": "zh-TW",
    "desc": "209 噸鋼梁從天而降奪走 4 條人命，16.4 億賠款，台北捷運本業至今仍在虧錢——全台捷運背後的真實代價",
    "city": "台北"
  },
  {
    "title": "台灣教育制度：從聯考地獄到多元迷宮的島嶼實驗",
    "lat": 25.035457,
    "lng": 121.56185,
    "category": "lifestyle",
    "region": "north",
    "link": "/lifestyle/%E5%8F%B0%E7%81%A3%E6%95%99%E8%82%B2%E5%88%B6%E5%BA%A6",
    "lang": "zh-TW",
    "desc": "台灣花30年想破除聯考制度，結果最新的分科測驗讓重考班招生暴增一倍。一個島嶼如何在升學壓力與教育公平之間，反覆進行社會實驗？",
    "city": "台北"
  },
  {
    "title": "台灣機車文化",
    "lat": 25.038476,
    "lng": 121.561658,
    "category": "lifestyle",
    "region": "north",
    "link": "/lifestyle/%E5%8F%B0%E7%81%A3%E6%A9%9F%E8%BB%8A%E6%96%87%E5%8C%96",
    "lang": "zh-TW",
    "desc": "全球機車密度最高的國家不是因為愛騎車——是因為沒有別的選擇。現在它意外成了電動二輪的全球實驗場。",
    "city": "台北"
  },
  {
    "title": "台灣騎樓文化與街景",
    "lat": 25.035489,
    "lng": 121.571544,
    "category": "lifestyle",
    "region": "north",
    "link": "/lifestyle/%E5%8F%B0%E7%81%A3%E9%A8%8E%E6%A8%93%E6%96%87%E5%8C%96%E8%88%87%E8%A1%97%E6%99%AF",
    "lang": "zh-TW",
    "desc": "遮風避雨的生活廊道，機車、攤販與人情味交織的台灣街頭記憶",
    "city": "台北"
  },
  {
    "title": "台灣高鐵：從「零政府出資」到「國有民營」，20 年縮短 90 分鐘的代價",
    "lat": 25.037936,
    "lng": 121.569426,
    "category": "lifestyle",
    "region": "north",
    "link": "/lifestyle/%E5%8F%B0%E7%81%A3%E9%AB%98%E9%90%B5",
    "lang": "zh-TW",
    "desc": "1998 年殷琪簽下這份 BOT，承諾政府零出資。2015 年立法院 18 比 0 否決財改案，葉匡時當晚請辭。十七年間，台灣如何用 5,133 億與一場歐日技術戰爭，把南北距離壓縮到 90 分鐘？",
    "city": "台北"
  },
  {
    "title": "吉祥物：從黑熊迷戀到諧音救贖的文化策展",
    "lat": 22.996892,
    "lng": 120.234391,
    "category": "lifestyle",
    "region": "south",
    "link": "/lifestyle/%E5%90%89%E7%A5%A5%E7%89%A9",
    "lang": "zh-TW",
    "desc": "2013 年「喔熊」誕生開啟台灣吉祥物戰國時代。從全台黑熊大亂鬥、醜到登美國脫口秀的「虱目魚小子」，到年收上億的「福利熊」與在議會備詢的「熊讚」，台灣吉祥物正從政府宣傳工具演化為具備靈魂與社會共鳴的文化符號。",
    "city": "台南"
  },
  {
    "title": "夜生活與KTV文化",
    "lat": 25.040297,
    "lng": 121.557163,
    "category": "lifestyle",
    "region": "north",
    "link": "/lifestyle/%E5%A4%9C%E7%94%9F%E6%B4%BB%E8%88%87KTV%E6%96%87%E5%8C%96",
    "lang": "zh-TW",
    "desc": "從錢櫃包廂到深夜食堂，24 小時不打烊的島嶼夜生活",
    "city": "台北"
  },
  {
    "title": "小綠人：從交通號誌到國家符號的25年傳奇",
    "lat": 25.040504,
    "lng": 121.558831,
    "category": "lifestyle",
    "region": "north",
    "link": "/lifestyle/%E5%B0%8F%E7%B6%A0%E4%BA%BA",
    "lang": "zh-TW",
    "desc": "一位東京觀光客驚訝地停下腳步，目睹台北街頭的奇蹟——會跑步的紅綠燈。25年來，這個看似平凡的小綠人，如何從松智路的一盞燈，成為讓全世界為之驚艷的台灣文化符號？",
    "city": "台北"
  },
  {
    "title": "桃園機場：從十大建設的「中正」之名到 2026 國門重啟的千億試煉",
    "lat": 24.988616,
    "lng": 121.293491,
    "category": "lifestyle",
    "region": "north",
    "link": "/lifestyle/%E6%A1%83%E5%9C%92%E6%A9%9F%E5%A0%B4",
    "lang": "zh-TW",
    "desc": "2026 年 4 月，桃園機場第三航廈屋頂正式封頂，標誌著這座耗資 1,283 億元的國門即將迎來重生。從 1979 年「中正機場」誕生、2016 年淹水低谷，到 2025 年北登機廊廳啟用引發的轉機潮，桃園機場正試圖在亞洲航空樞紐的競爭中，找回失落的座標。",
    "city": "桃園"
  },
  {
    "title": "溫泉文化",
    "lat": 22.659962,
    "lng": 121.491983,
    "category": "lifestyle",
    "region": "east",
    "link": "/lifestyle/%E6%BA%AB%E6%B3%89%E6%96%87%E5%8C%96",
    "lang": "zh-TW",
    "desc": "從軍事療養到世界三大泥泉：台灣意外成為溫泉王國的故事",
    "city": "台東"
  },
  {
    "title": "遊覽車：載著台灣人上山下海六十年的鐵盒子，為什麼總在出事？",
    "lat": 22.622123,
    "lng": 120.297374,
    "category": "lifestyle",
    "region": "south",
    "link": "/lifestyle/%E9%81%8A%E8%A6%BD%E8%BB%8A",
    "lang": "zh-TW",
    "desc": "從日治時期 14 歲考上車掌的余劉菊蘭、1959 年金馬號開上中橫、1980 年代橫行國道的野雞車，到 2017 年蝶戀花南港翻覆 33 死、2025 年國一火燒車與杉林溪墜谷，遊覽車承載了台灣戰後所有的觀光夢、進香團與校外教學。但靠行制度、低團費競爭與長工時，讓這個鐵盒子也成了島上最危險的交通工具之一。2026 年元旦上路的駕駛身分識別新制，能不能終結這場循環？",
    "city": "高雄"
  },
  {
    "title": "電競：從網咖小子到世界舞台，台灣韌性與機會的競技場",
    "lat": 25.017887,
    "lng": 121.463199,
    "category": "lifestyle",
    "region": "north",
    "link": "/lifestyle/%E9%9B%BB%E7%AB%B6",
    "lang": "zh-TW",
    "desc": "2012年TPA奪冠曾點燃台灣電競熱血，但產業發展並非一帆風順。從曾政承的困境到電競入法，台灣電競在榮耀與挑戰中尋找定位，更在全球硬體供應鏈、多元社群與AI浪潮中，展現獨特韌性與無限機會。",
    "city": "新北"
  },
  {
    "title": "高速公路：從麥帥公路到雪山隧道，台灣國道五十年的權力與速度",
    "lat": 25.135642,
    "lng": 121.74,
    "category": "lifestyle",
    "region": "north",
    "link": "/lifestyle/%E9%AB%98%E9%80%9F%E5%85%AC%E8%B7%AF",
    "lang": "zh-TW",
    "desc": "1964 年的麥帥公路只有 23 公里，今天的台灣國道路網超過 1,000 公里。從蔣經國拍板的中山高、被嘲笑「政治路」的福高、世界最難挖的雪隧，到 ETC 改變每個駕駛的繳費習慣——一條條柏油記錄了戰後台灣的政治意志、工程極限與民間反抗。",
    "city": "基隆"
  },
  {
    "title": "五月天",
    "lat": 25.035354,
    "lng": 121.560192,
    "category": "music",
    "region": "north",
    "link": "/music/%E4%BA%94%E6%9C%88%E5%A4%A9",
    "lang": "zh-TW",
    "desc": "1997 年，五個師大附中的高中生在野台開唱用 BBS 代號報了名。三十年後，他們在台北大巨蛋十分鐘賣掉 32 萬張票，在北京鳥巢唱了 30 場，卻也在同一個舞台上說出讓台灣人心碎的四個字。",
    "city": "台北"
  },
  {
    "title": "台灣原住民音樂傳統",
    "lat": 22.676955,
    "lng": 120.490563,
    "category": "music",
    "region": "south",
    "link": "/music/%E5%8F%B0%E7%81%A3%E5%8E%9F%E4%BD%8F%E6%B0%91%E9%9F%B3%E6%A8%82%E5%82%B3%E7%B5%B1",
    "lang": "zh-TW",
    "desc": "探索台灣 16 族原住民豐富的音樂文化，從古調吟唱到傳統樂器，見證數千年文化傳承",
    "city": "屏東"
  },
  {
    "title": "台灣國樂：中國樂器上長出來的島嶼聲音",
    "lat": 25.026192,
    "lng": 121.561755,
    "category": "music",
    "region": "north",
    "link": "/music/%E5%8F%B0%E7%81%A3%E5%9C%8B%E6%A8%82",
    "lang": "zh-TW",
    "desc": "1949 年渡海而來的二胡和琵琶，七十年後在台灣演奏布農族的八部合音。台灣國樂如何從政治正統的象徵，演化成一個跟對岸截然不同的音樂物種。",
    "city": "台北"
  },
  {
    "title": "台灣樂器製造業：從后里薩克斯風到全球音樂工廠",
    "lat": 23.868187,
    "lng": 120.918637,
    "category": "music",
    "region": "central",
    "link": "/music/%E5%8F%B0%E7%81%A3%E6%A8%82%E5%99%A8%E8%A3%BD%E9%80%A0",
    "lang": "zh-TW",
    "desc": "探索台灣樂器製造業的發展歷程，從后里薩克斯風的全球霸主地位到吉他代工王國，再到音樂盒製造的精密工藝，台灣如何從代工走向自有品牌",
    "city": "南投"
  },
  {
    "title": "台灣民歌運動",
    "lat": 25.176256,
    "lng": 121.443338,
    "category": "music",
    "region": "north",
    "link": "/music/%E5%8F%B0%E7%81%A3%E6%B0%91%E6%AD%8C%E9%81%8B%E5%8B%95",
    "lang": "zh-TW",
    "desc": "從「唱自己的歌」到改變整個華語音樂圈——1970年代那場屬於年輕人的文化革命",
    "city": "新北"
  },
  {
    "title": "台灣獨立音樂：一間發不出薪水的唱片行，如何替一座島嶼打開耳朵",
    "lat": 25.030492,
    "lng": 121.571852,
    "category": "music",
    "region": "north",
    "link": "/music/%E5%8F%B0%E7%81%A3%E7%8D%A8%E7%AB%8B%E9%9F%B3%E6%A8%82",
    "lang": "zh-TW",
    "desc": "從水晶唱片負債三十萬頂下來的冒險，到草東沒有派對在咖啡店賣光首刷。台灣獨立音樂 35 年不是逆襲故事，是一群人堅持讓「沒被看見的聲音被聽見」的漫長賭局",
    "city": "台北"
  },
  {
    "title": "台灣聲音地景",
    "lat": 25.027588,
    "lng": 121.572581,
    "category": "music",
    "region": "north",
    "link": "/music/%E5%8F%B0%E7%81%A3%E8%81%B2%E9%9F%B3%E5%9C%B0%E6%99%AF",
    "lang": "zh-TW",
    "desc": "從垃圾車的致愛麗絲到布農族八部合音——用耳朵認識台灣",
    "city": "台北"
  },
  {
    "title": "台灣電子音樂與派對文化：從地下 Rave 到國際舞台",
    "lat": 25.027358,
    "lng": 121.559256,
    "category": "music",
    "region": "north",
    "link": "/music/%E5%8F%B0%E7%81%A3%E9%9B%BB%E5%AD%90%E9%9F%B3%E6%A8%82%E8%88%87%E6%B4%BE%E5%B0%8D%E6%96%87%E5%8C%96",
    "lang": "zh-TW",
    "desc": "從1990年代 Rave 派對文化到 Road to Ultra 電音節，台灣電子音樂如何從地下走向主流，孕育出國際級 DJ 與獨立電子廠牌",
    "city": "台北"
  },
  {
    "title": "台灣音樂祭文化：一座島嶼為什麼需要這麼多場戶外派對",
    "lat": 21.948,
    "lng": 120.803,
    "category": "music",
    "region": "south",
    "link": "/music/%E5%8F%B0%E7%81%A3%E9%9F%B3%E6%A8%82%E7%A5%AD%E6%96%87%E5%8C%96",
    "lang": "zh-TW",
    "desc": "從 1995 年墾丁沙灘上兩個美國人架起的舞台，到每年超過 50 場遍布全島的音樂祭。台灣的音樂祭密度可能是全世界最高，而開山鼻祖不是台灣人",
    "city": "屏東"
  },
  {
    "title": "台灣合唱團：從榮星到亞洲五強的甲子",
    "lat": 25.027234,
    "lng": 121.559302,
    "category": "music",
    "region": "north",
    "link": "/music/%E5%90%88%E5%94%B1%E5%9C%98",
    "lang": "zh-TW",
    "desc": "1957 年呂泉生與辜偉甫創立榮星兒童合唱團，把粗獷的鄉野小調改編成精緻合唱。六十多年後，台北愛樂在匈牙利舞台上自帶國旗、寶來國中合唱團三連霸世界冠軍、歐開合唱團累積 55 項國際大獎。從校園普及到國際專業，這份美聲背後是一條完整生態系，也是合唱團在政治打壓下守護尊嚴的歷史。",
    "city": "台北"
  },
  {
    "title": "周蕙：唱了 25 年〈約定〉的女聲，從漫畫娃娃到小巨蛋的長跑",
    "lat": 25.03836,
    "lng": 121.558028,
    "category": "music",
    "region": "north",
    "link": "/music/%E5%91%A8%E8%95%99",
    "lang": "zh-TW",
    "desc": "1999 年福茂發行《周蕙精選》，封面用一隻叫蕙兒的漫畫娃娃代替她本人的臉。〈約定〉走進每一間 KTV、走過 25 年，她的本人卻始終比歌晚一步被認出來。2026 年 4 月 25 日她第一次站上小巨蛋，演唱會尾聲卻宣布聲帶萎縮，「不曉得這會不會是最後一次唱歌給大家聽」。一個翻唱歌手的 25 年長跑。",
    "city": "台北"
  },
  {
    "title": "從張懸到安溥——兩個名字，同一個問題",
    "lat": 23.476337,
    "lng": 120.957755,
    "category": "music",
    "region": "central",
    "link": "/music/%E5%BC%B5%E6%87%B8%E8%88%87%E5%AE%89%E6%BA%A5",
    "lang": "zh-TW",
    "desc": "13 歲寫出〈寶貝〉，32 歲因一面旗子被中國封殺，34 歲親手殺死自己的藝名。焦安溥用兩段人生回答了一個台灣人都在問的問題：你到底站哪邊？",
    "city": "南投"
  },
  {
    "title": "滅火器——游泳池旁撿到的名字，唱了二十五年",
    "lat": 22.626114,
    "lng": 120.295351,
    "category": "music",
    "region": "south",
    "link": "/music/%E6%BB%85%E7%81%AB%E5%99%A8%E6%A8%82%E5%9C%98",
    "lang": "zh-TW",
    "desc": "2000 年三個高雄高中生在游泳池旁撿了一個滅火器當團名。二十五年後，他們用台語龐克唱出太陽花學運的時代之聲，把廠牌搬回南方，在打狗祭舞台上花七分鐘告訴全場：失望可以，但不要變成你討厭的那種人。",
    "city": "高雄"
  },
  {
    "title": "農村武裝青年",
    "lat": 24.074625,
    "lng": 120.546597,
    "category": "music",
    "region": "central",
    "link": "/music/%E8%BE%B2%E6%9D%91%E6%AD%A6%E8%A3%9D%E9%9D%92%E5%B9%B4",
    "lang": "zh-TW",
    "desc": "江育達與他的民謠，在抗爭現場唱了十年，然後回到故鄉彰化，失去了兩年創作能力——他說，那才是他最革命的時刻。",
    "city": "彰化"
  },
  {
    "title": "巴拉告：馬太鞍濕地的三層魚類公寓與生態契約",
    "lat": 23.99889,
    "lng": 121.599846,
    "category": "nature",
    "region": "east",
    "link": "/nature/Palakaw",
    "lang": "zh-TW",
    "desc": "在花蓮馬太鞍濕地，阿美族人利用自然界中的「廢棄物」為魚蝦搭建三層構造的棲所。這套名為「巴拉告」的傳統漁法，不靠追逐捕獵，而是透過「給予」來換取大自然的饋贈，體現了傳承千年的生態智慧。",
    "city": "花蓮"
  },
  {
    "title": "台灣原住民生態智慧與環境保育",
    "lat": 23.999975,
    "lng": 121.60855,
    "category": "nature",
    "region": "east",
    "link": "/nature/%E5%8F%B0%E7%81%A3%E5%8E%9F%E4%BD%8F%E6%B0%91%E7%94%9F%E6%85%8B%E6%99%BA%E6%85%A7%E8%88%87%E7%92%B0%E5%A2%83%E4%BF%9D%E8%82%B2",
    "lang": "zh-TW",
    "desc": "探討台灣原住民族數千年來累積的傳統生態知識，以及在現代環境保育中的重要價值與實踐方式",
    "city": "花蓮"
  },
  {
    "title": "島嶼的山海之巔：台灣國家公園的生態與地景",
    "lat": 24.155549,
    "lng": 121.627409,
    "category": "nature",
    "region": "east",
    "link": "/nature/%E5%8F%B0%E7%81%A3%E5%9C%8B%E5%AE%B6%E5%85%AC%E5%9C%92",
    "lang": "zh-TW",
    "desc": "探索台灣九座國家公園的獨特生態系統與保育價值，從亞熱帶海岸到高山雪線的完整地景",
    "city": "花蓮"
  },
  {
    "title": "台灣山岳與登山文化",
    "lat": 23.464763,
    "lng": 120.958192,
    "category": "nature",
    "region": "central",
    "link": "/nature/%E5%8F%B0%E7%81%A3%E5%B1%B1%E5%B2%B3%E8%88%87%E7%99%BB%E5%B1%B1%E6%96%87%E5%8C%96",
    "lang": "zh-TW",
    "desc": "268座三千公尺高山擠在一座島上，台灣人卻花了半世紀才被允許自由爬自己的山",
    "city": "南投"
  },
  {
    "title": "冰河孑遺的微笑：台灣山椒魚的百年身世與科技守護之路",
    "lat": 23.504759,
    "lng": 120.696722,
    "category": "nature",
    "region": "south",
    "link": "/nature/%E5%8F%B0%E7%81%A3%E5%B1%B1%E6%A4%92%E9%AD%9A",
    "lang": "zh-TW",
    "desc": "在台灣高山深處，五種特有種山椒魚默默承載著冰河時期的記憶。牠們是高山生態指標，也是一段百年來科學家不斷探索、正名、甚至付出生命的故事。2025 年人工孵化技術的突破，為這些「微笑的高山精靈」帶來新希望。",
    "city": "嘉義"
  },
  {
    "title": "台灣島嶼博物學：島嶼與世界的生命對話",
    "lat": 22.907,
    "lng": 121.122,
    "category": "nature",
    "region": "east",
    "link": "/nature/%E5%8F%B0%E7%81%A3%E5%B3%B6%E5%B6%BC%E5%8D%9A%E7%89%A9%E5%AD%B8",
    "lang": "zh-TW",
    "desc": "從冰河時期的陸橋遷徙到南島語族的構樹基因，台灣不僅是生物的避難所，更是演化的十字路口。透過博物學家的雙眼，重新發現這座島嶼如何與世界進行生命對話。",
    "city": "台東"
  },
  {
    "title": "台灣森林生態系",
    "lat": 23.465616,
    "lng": 120.961688,
    "category": "nature",
    "region": "central",
    "link": "/nature/%E5%8F%B0%E7%81%A3%E6%A3%AE%E6%9E%97%E7%94%9F%E6%85%8B%E7%B3%BB",
    "lang": "zh-TW",
    "desc": "一趟從海平面到玉山頂峰的垂直旅行，穿越地球上最密集的森林光譜",
    "city": "南投"
  },
  {
    "title": "台灣步道文化與公民守護",
    "lat": 25.004954,
    "lng": 121.464485,
    "category": "nature",
    "region": "north",
    "link": "/nature/%E5%8F%B0%E7%81%A3%E6%AD%A5%E9%81%93%E6%96%87%E5%8C%96%E8%88%87%E5%85%AC%E6%B0%91%E5%AE%88%E8%AD%B7",
    "lang": "zh-TW",
    "desc": "從千里步道協會到iTrail平台，探索台灣獨特的步道守護文化與公民科學精神",
    "city": "新北"
  },
  {
    "title": "台灣氣候危機與淨零轉型：核三公投沒過那天，物理上限的選擇才剛開始",
    "lat": 22.030261,
    "lng": 121.551607,
    "category": "nature",
    "region": "east",
    "link": "/nature/%E5%8F%B0%E7%81%A3%E6%B0%A3%E5%80%99%E5%8D%B1%E6%A9%9F%E8%88%87%E6%B7%A8%E9%9B%B6%E8%BD%89%E5%9E%8B",
    "lang": "zh-TW",
    "desc": "2025 年 8 月 23 日核三延役公投：434 萬同意票、74% 贊成，投票率 29.53% 沒到門檻。公投沒過，隔天賴清德開出三原則，七個月後台電在 2026 年 3 月 27 日把延役申請送進核安會。98% 能源靠進口、9 兆台幣淨零、地熱目標 200 MW 只蓋出 7.4 MW、離岸風電裝置量全球第七、Onkalo 終極處置場、TerraPower 第四代核電——這座島嶼的能源題從來不是政治題，是物理上限題。",
    "city": "台東"
  },
  {
    "title": "台灣水鹿：從消失的「山中神獸」到重返低海拔的生態工程師",
    "lat": 23.465123,
    "lng": 120.959918,
    "category": "nature",
    "region": "central",
    "link": "/nature/%E5%8F%B0%E7%81%A3%E6%B0%B4%E9%B9%BF",
    "lang": "zh-TW",
    "desc": "2025 年，當登山客在能高越嶺道輕鬆與水鹿對視時，很難想像三十年前見到牠像中彩券一樣難。這篇文探討台灣最大型草食獸如何從瀕滅邊緣回歸，以及牠們為何開始「啃樹皮」——背後牽動著動物自我醫療的研究發現、台灣高山生態的複雜平衡，以及原住民族的文化記憶。",
    "city": "南投"
  },
  {
    "title": "台灣海洋保育：為什麼花30年建成的體系，救不了一場珊瑚白化？",
    "lat": 22.338,
    "lng": 120.373,
    "category": "nature",
    "region": "south",
    "link": "/nature/%E5%8F%B0%E7%81%A3%E6%B5%B7%E6%B4%8B%E4%BF%9D%E8%82%B2%E8%88%87%E6%8C%91%E6%88%B0",
    "lang": "zh-TW",
    "desc": "2020年，台灣海域經歷史上最大規模珊瑚白化。從小琉球到東沙環礁，連保護區內的珊瑚都在高溫中死去。這暴露了什麼問題？",
    "city": "屏東"
  },
  {
    "title": "台灣海洋污染治理與保育挑戰",
    "lat": 22.332263,
    "lng": 120.372036,
    "category": "nature",
    "region": "south",
    "link": "/nature/%E5%8F%B0%E7%81%A3%E6%B5%B7%E6%B4%8B%E6%B1%A1%E6%9F%93%E6%B2%BB%E7%90%86%E8%88%87%E4%BF%9D%E8%82%B2%E6%8C%91%E6%88%B0",
    "lang": "zh-TW",
    "desc": "面對海洋廢棄物、過度捕撈與氣候變遷，探討台灣海洋保育的現況、挑戰與創新解決方案",
    "city": "屏東"
  },
  {
    "title": "台灣海洋生態",
    "lat": 22.029992,
    "lng": 121.551427,
    "category": "nature",
    "region": "east",
    "link": "/nature/%E5%8F%B0%E7%81%A3%E6%B5%B7%E6%B4%8B%E7%94%9F%E6%85%8B",
    "lang": "zh-TW",
    "desc": "達悟族用禁忌守護的海域，如今在高溫與水下噪音中白化：當數千年生態智慧遇上現代海洋危機",
    "city": "台東"
  },
  {
    "title": "台灣海洋生態與珊瑚礁保育",
    "lat": 21.949876,
    "lng": 120.80195,
    "category": "nature",
    "region": "south",
    "link": "/nature/%E5%8F%B0%E7%81%A3%E6%B5%B7%E6%B4%8B%E7%94%9F%E6%85%8B%E8%88%87%E7%8F%8A%E7%91%9A%E7%A4%81%E4%BF%9D%E8%82%B2",
    "lang": "zh-TW",
    "desc": "台灣四面環海擁有豐富海洋生態，從珊瑚礁白化危機到鯨豚保育，探討海洋國家公園的保護成效與未來挑戰",
    "city": "屏東"
  },
  {
    "title": "台灣溫泉與地熱",
    "lat": 22.668301,
    "lng": 121.500371,
    "category": "nature",
    "region": "east",
    "link": "/nature/%E5%8F%B0%E7%81%A3%E6%BA%AB%E6%B3%89%E8%88%87%E5%9C%B0%E7%86%B1",
    "lang": "zh-TW",
    "desc": "從 30 年前失敗的地熱電廠到世界唯一北投石：一座島嶼如何把地底之火變成療癒與綠電",
    "city": "台東"
  },
  {
    "title": "台灣獼猴：在中山大學的生存博弈、母系權力與萬年定居者的真相",
    "lat": 22.626166,
    "lng": 120.297403,
    "category": "nature",
    "region": "south",
    "link": "/nature/%E5%8F%B0%E7%81%A3%E7%8D%BC%E7%8C%B4",
    "lang": "zh-TW",
    "desc": "從中山大學學生「持槍取外送」的荒謬日常，到 1862 年史溫侯首次向西方介紹這座島嶼的靈長類，台灣獼猴常被冠以「流氓」之名。背後是一個萬年前就定居柴山的嚴謹母系社會，在校園擴張與人類餵食下，被迫演化出的生存文化。",
    "city": "高雄"
  },
  {
    "title": "台灣皇蛾",
    "lat": 24.557904,
    "lng": 120.824868,
    "category": "nature",
    "region": "central",
    "link": "/nature/%E5%8F%B0%E7%81%A3%E7%9A%87%E8%9B%BE",
    "lang": "zh-TW",
    "desc": "翅展可達 25-30 公分、全球翅展最長的蛾類之一，翅膀展開如一本攤開的書——牠一生不吃東西，只為飛一趟",
    "city": "苗栗"
  },
  {
    "title": "台灣石虎保育",
    "lat": 24.559517,
    "lng": 120.822231,
    "category": "nature",
    "region": "central",
    "link": "/nature/%E5%8F%B0%E7%81%A3%E7%9F%B3%E8%99%8E%E4%BF%9D%E8%82%B2",
    "lang": "zh-TW",
    "desc": "全台剩不到五百隻的幽靈貓——當最後的原生貓科走上消失的邊緣",
    "city": "苗栗"
  },
  {
    "title": "台灣穿山甲",
    "lat": 25.029884,
    "lng": 121.557218,
    "category": "nature",
    "region": "north",
    "link": "/nature/%E5%8F%B0%E7%81%A3%E7%A9%BF%E5%B1%B1%E7%94%B2",
    "lang": "zh-TW",
    "desc": "全世界被走私最多的哺乳動物，在台灣找到了一個安全的家",
    "city": "台北"
  },
  {
    "title": "台灣藍鵲：都市叢林裡的藍色幫派，與一場跨百年的基因保衛戰",
    "lat": 25.02507,
    "lng": 121.563777,
    "category": "nature",
    "region": "north",
    "link": "/nature/%E5%8F%B0%E7%81%A3%E8%97%8D%E9%B5%B2",
    "lang": "zh-TW",
    "desc": "2007 年以 18 萬票奪下國鳥寶座，這顆山林寶石卻是會「打群架」的強悍家族。從 1862 年郇和採集的首個標本，到今日適應都市搶食貓糧，牠們以 97% 的巢邊幫手制在競爭中勝出。這是一個關於生存、家族凝聚力、基因保衛戰，以及人鳥共存智慧的島嶼故事。",
    "city": "台北"
  },
  {
    "title": "台灣高山生態系與冰河孑遺",
    "lat": 23.473778,
    "lng": 120.95715,
    "category": "nature",
    "region": "central",
    "link": "/nature/%E5%8F%B0%E7%81%A3%E9%AB%98%E5%B1%B1%E7%94%9F%E6%85%8B%E7%B3%BB%E8%88%87%E5%86%B0%E6%B2%B3%E5%AD%91%E9%81%BA",
    "lang": "zh-TW",
    "desc": "探討台灣3000公尺以上高山環境的獨特生態系統，從台灣杉、玉山杜鵑到冰河時期孑遺物種的珍貴生物多樣性",
    "city": "南投"
  },
  {
    "title": "台灣黑熊",
    "lat": 23.470261,
    "lng": 120.961278,
    "category": "nature",
    "region": "central",
    "link": "/nature/%E5%8F%B0%E7%81%A3%E9%BB%91%E7%86%8A",
    "lang": "zh-TW",
    "desc": "胸前的白色 V 字是牠的簽名，與牠未完的保育戰",
    "city": "南投"
  },
  {
    "title": "國家公園",
    "lat": 24.15804,
    "lng": 121.62064,
    "category": "nature",
    "region": "east",
    "link": "/nature/%E5%9C%8B%E5%AE%B6%E5%85%AC%E5%9C%92",
    "lang": "zh-TW",
    "desc": "36,197 平方公里塞進 9 座國家公園，密度之高，為世界前列的保育奇蹟",
    "city": "花蓮"
  },
  {
    "title": "梅雨：從 1981 年那場淹掉桃竹苗與大台北的雨，到一場讓美國人飛來台灣的科學實驗",
    "lat": 25.03786,
    "lng": 121.561074,
    "category": "nature",
    "region": "north",
    "link": "/nature/%E6%A2%85%E9%9B%A8",
    "lang": "zh-TW",
    "desc": "1981 年 5 月 28 日清晨，一道梅雨鋒面在桃竹苗與大台北引爆，公館一帶錄到時雨量逾 140 公厘，全台 8 死、千棟民宅受損。六年後 TAMEX 計畫展開，125 位以上美台科學家在斷交陰影下用一架 NOAA P-3、3 艘觀測船、3 部都卜勒雷達追逐鋒面。四十年後，這道每年五、六月準時報到的滯留鋒面，仍是 2,300 萬人飲用水的命脈，也是淹沒整座城市的兇手。",
    "city": "台北"
  },
  {
    "title": "台灣水獺：金門歐亞水獺的孤島求生記與本島的靜默消逝",
    "lat": 24.450112,
    "lng": 118.383905,
    "category": "nature",
    "region": "islands",
    "link": "/nature/%E6%B0%B4%E7%8D%BA",
    "lang": "zh-TW",
    "desc": "台灣本島歐亞水獺自1980年代後便無確切野外紀錄，族群現況不明且極不樂觀。目前僅存於金門的「戰地水獺」正面臨棲地破碎、路殺與微塑膠污染的多重夾擊。",
    "city": "金門"
  },
  {
    "title": "特有種",
    "lat": 25.163424,
    "lng": 121.436397,
    "category": "nature",
    "region": "north",
    "link": "/nature/%E7%89%B9%E6%9C%89%E7%A8%AE",
    "lang": "zh-TW",
    "desc": "台灣豐富的特有種生物：島嶼地理學、垂直氣候帶與長期隔離演化的共同產物，也是全球生物多樣性研究的重要田野場域",
    "city": "新北"
  },
  {
    "title": "生態多樣性",
    "lat": 23.467388,
    "lng": 120.950274,
    "category": "nature",
    "region": "central",
    "link": "/nature/%E7%94%9F%E6%85%8B%E5%A4%9A%E6%A8%A3%E6%80%A7",
    "lang": "zh-TW",
    "desc": "台灣面積僅佔全球0.025%，卻擁有超過5萬種生物，森林覆蓋率60.71%排名全球第33位",
    "city": "南投"
  },
  {
    "title": "福爾摩沙鳥類學：一個英國副領事、201 個拉丁名字，和他沒踏進去的山",
    "lat": 25.176645,
    "lng": 121.447208,
    "category": "nature",
    "region": "north",
    "link": "/nature/%E7%A6%8F%E7%88%BE%E6%91%A9%E6%B2%99%E9%B3%A5%E9%A1%9E%E5%AD%B8",
    "lang": "zh-TW",
    "desc": "1861 年，24 歲的史溫侯成為英國首任駐台副領事。五年後他離開時，留下一篇論文，讓世界第一次用拉丁文寫下台灣的鳥。但他的鳥類地圖，是一張從海岸線描出的地圖——中央山脈的空白裡，原住民已經用族語喊過這些鳥千年。",
    "city": "新北"
  },
  {
    "title": "臺灣的鯨豚",
    "lat": 23.993117,
    "lng": 121.607523,
    "category": "nature",
    "region": "east",
    "link": "/nature/%E8%87%BA%E7%81%A3%E7%9A%84%E9%AF%A8%E8%B1%9A",
    "lang": "zh-TW",
    "desc": "全球三分之一鯨豚物種的棲息地——從昔日捕鯨到今日賞鯨，臺灣如何轉身成為海洋生態研究重鎮？",
    "city": "花蓮"
  },
  {
    "title": "蘭嶼生態系：黑潮邊境的生命密碼",
    "lat": 22.032973,
    "lng": 121.55562,
    "category": "nature",
    "region": "east",
    "link": "/nature/%E8%98%AD%E5%B6%BC%E7%94%9F%E6%85%8B%E7%B3%BB",
    "lang": "zh-TW",
    "desc": "蘭嶼不屬於台灣，至少在生物學上如此。這座菲律賓火山島弧最北端的小島，被黑潮帶來的熱帶生命填滿，又在達悟族千年的生態智慧中，找到了人與自然的平衡。",
    "city": "台東"
  },
  {
    "title": "能預測風雨，預測不了命運：台灣與颱風的四百年",
    "lat": 23.507315,
    "lng": 120.695682,
    "category": "nature",
    "region": "south",
    "link": "/nature/%E9%A2%B1%E9%A2%A8",
    "lang": "zh-TW",
    "desc": "2009 年莫拉克的那個清晨，71 歲的羅潘春美站在二樓陽台，看著獻肚山崩下來，吞掉小林村 462 位親人。十五年後，台灣用六組 AI 模型把 24 小時颱風路徑誤差從 172 公里壓到 57 公里。但那 57 公里裡誰會在風雨中出門上班、誰會收不到通知，預測不了。",
    "city": "嘉義"
  },
  {
    "title": "黃魚鴞：六公里溪流養一對，1,800 公尺烏心石上的夜行猛禽",
    "lat": 25.040062,
    "lng": 121.566584,
    "category": "nature",
    "region": "north",
    "link": "/nature/%E9%BB%83%E9%AD%9A%E9%B4%9E",
    "lang": "zh-TW",
    "desc": "2026 年 4 月，屏科大助理教授洪孝宇在七家灣溪畔一棵胸徑約 1.5 公尺的烏心石樹洞裡，定位到全台已知最高的黃魚鴞巢位——海拔約 1,800 公尺。這種台灣最大的貓頭鷹 1916 年才由日籍學者黑田長禮首次記錄，屏東科技大學孫元勳研究室追了三十年，91 個領域平均每對需要 6.2 公里長的溪。一段沒被水泥的溪、一棵還沒倒的巨木——黃魚鴞活在台灣山林兩件事還沒消失的縫隙裡。",
    "city": "台北"
  },
  {
    "title": "黑冠麻鷺：賞鳥者的夢幻物種，校園裡的大笨鳥",
    "lat": 25.033013,
    "lng": 121.560273,
    "category": "nature",
    "region": "north",
    "link": "/nature/%E9%BB%91%E5%86%A0%E9%BA%BB%E9%B7%BA",
    "lang": "zh-TW",
    "desc": "1985 到 1992 年中華鳥會 4,000 筆鳥類紀錄裡，黑冠麻鷺只佔 25 筆，是賞鳥圖鑑上的「稀有留鳥」。三十年後牠在台大椰林大道、大安森林公園天天可見。通行說法是「牠變不怕人」，但台大袁孝維 2010 年起的繫放研究指向另一個答案：台灣都市的密林化校園與不噴藥草坪，剛好複製了牠原本的低海拔森林棲位——鳥沒變，地變了。",
    "city": "台北"
  },
  {
    "title": "黑面琵鷺：從三百隻到七千隻，這場跨國復育奇蹟正迎來「成功的代價」",
    "lat": 22.995822,
    "lng": 120.220096,
    "category": "nature",
    "region": "south",
    "link": "/nature/%E9%BB%91%E9%9D%A2%E7%90%B5%E9%B7%BA",
    "lang": "zh-TW",
    "desc": "2026 年全球普查顯示黑面琵鷺已達 7,746 隻，台灣記錄到 4,719 隻創歷史新高。這群曾瀕臨滅絕的「黑面舞者」雖在 2025 年調降保育等級，卻在度冬地台灣面臨光電開發、肉毒桿菌與遊蕩犬攻擊等新興生存挑戰。",
    "city": "台南"
  },
  {
    "title": "Cicada：從 2009 年莫拉克到 2022 年丹大溪源的十五年田野錄音",
    "lat": 22.039999,
    "lng": 121.542296,
    "category": "people",
    "region": "east",
    "link": "/people/Cicada",
    "lang": "zh-TW",
    "desc": "2009 年在台北成立的 Cicada 是全器樂、無人聲的獨立樂團。創團鋼琴手江致潔（北藝大藝術史碩士）因為看到那年莫拉克颱風的新聞寫下第一批曲子。之後十五年，他們把台灣的海岸消逝、海洋生態、山林溪源變成一張張沒有人聲的專輯。2022 年《棲居在溪源之上》是一場 15 天、120 公里的中央山脈遠征產物；配樂作品獲日本 Academy Prize。2024 年《回返》回到西海岸「之間」——山與水、森林與土地的那段間隙。",
    "city": "台東"
  },
  {
    "title": "三毛：把逃離寫成自由的人",
    "lat": 25.03838,
    "lng": 121.56283,
    "category": "people",
    "region": "north",
    "link": "/people/%E4%B8%89%E6%AF%9B",
    "lang": "zh-TW",
    "desc": "本名陳平，1943年生於重慶，1948年隨家遷台。國中因老師當眾羞辱輟學，七年自閉後重新寫作。1973年與荷西在西屬撒哈拉結婚，散文爆紅，成為戒嚴時代台灣人想像遠方的窗口。1979年荷西潛水意外身亡。1990年編劇《滾滾紅塵》獲金馬八獎。1991年1月4日台北榮民總醫院自縊，享年四十七歲。",
    "city": "台北"
  },
  {
    "title": "伍佰：六腳鄉蒜頭村出發，台語搖滾三十年不折扣",
    "lat": 23.480851,
    "lng": 120.452846,
    "category": "people",
    "region": "south",
    "link": "/people/%E4%BC%8D%E4%BD%B0",
    "lang": "zh-TW",
    "desc": "本名吳俊霖，1968年出生於嘉義縣六腳鄉蒜頭村。1992年組成「伍佰&China Blue」，1995年《挪威的森林》確立台語搖滾路線。2016年發行《釘子花》，2017年奪金曲獎最佳台語專輯。2025年發行新專輯《純白的起點》，ROCK STAR 2 巡演橫跨兩岸。",
    "city": "嘉義"
  },
  {
    "title": "侯孝賢",
    "lat": 25.036526,
    "lng": 121.571742,
    "category": "people",
    "region": "north",
    "link": "/people/%E4%BE%AF%E5%AD%9D%E8%B3%A2",
    "lang": "zh-TW",
    "desc": "拒絕特寫鏡頭卻征服世界的電影詩人——一個反電影語法的影像革命者",
    "city": "台北"
  },
  {
    "title": "八炯：從花蓮太魯閣族青年到被中共懸賞百萬的「聽床師」",
    "lat": 24.165673,
    "lng": 121.618509,
    "category": "people",
    "region": "east",
    "link": "/people/%E5%85%AB%E7%82%AF",
    "lang": "zh-TW",
    "desc": "2025 年 11 月，福建泉州公安局發布了一則懸賞通告，對象是台灣網紅八炯。這位從花蓮新城鄉出發、曾以旅遊影片獲獎的太魯閣族青年，在短短六年間，憑藉著對中共體制的辛辣嘲諷與「反共」流量，從一名地方創作者變成了國台辦口中的「台獨打手」，並在國際舞台上持續揭露中共統戰內幕。",
    "city": "花蓮"
  },
  {
    "title": "劉安婷",
    "lat": 24.155305,
    "lng": 120.672298,
    "category": "people",
    "region": "central",
    "link": "/people/%E5%8A%89%E5%AE%89%E5%A9%B7",
    "lang": "zh-TW",
    "desc": "2008 年從台中女中進普林斯頓，2013 年 23 歲辭紐約顧問工作回台灣創辦 TFT 為台灣而教。2016 年在成大畢業典禮問了一句「你拿幸運做什麼？」，那句話變成整整一代人的集體語錄。但她最常講的另一句話是「不要相信我個人」。2024 年 10 週年後，她把 TFT 董事長交給林妍希，自己轉任董事。她最好的作品不是 TFT，是讓 TFT 可以不在她身上。",
    "city": "台中"
  },